站名,緯度,經度,平均溫距平,本年度平均溫,平均溼度距平,本年度日均相對溼度,本年度日均降水量,日均降水量距平,站號
稚内,45.415,141.678333,-0.31,8.9,3.27,82.89,0.09,-0.01,s47401
北見枝幸,44.94,142.585,-1.49,7.67,7.64,83.19,0.1,0.01,s47402
羽幌,44.363333,141.7,-0.08,11.25,1.55,74.64,0.08,-0.01,s47404
留萌,43.945,141.631667,-0.21,11.04,3.12,79.28,0.07,0.0,s47406
旭川,43.756667,142.371667,-0.03,12.5,1.97,68.3,0.07,-0.02,s47407
雄武,44.58,142.963333,-1.48,7.53,6.79,83.64,0.08,0.0,s47405
紋別,44.345,143.355,-1.41,8.28,6.81,80.33,0.09,0.01,s47435
網走,44.016667,144.278333,-0.96,8.96,11.24,83.43,0.13,0.04,s47409
岩見沢,43.211667,141.785,-0.03,12.26,3.61,74.8,0.1,-0.0,s47413
小樽,43.181667,141.015,-0.34,11.88,4.68,74.0,0.04,-0.02,s47411
倶知安,42.9,140.756667,-0.27,11.1,2.97,76.34,0.08,-0.01,s47433
寿都,42.795,140.223333,-0.19,11.42,4.55,78.78,0.08,-0.0,s47421
札幌,43.06,141.328333,-0.21,13.02,6.3,71.01,0.11,0.04,s47412
浦河,42.161667,142.776667,0.27,10.21,3.11,86.68,0.3,0.14,s47426
帯広,42.921667,143.211667,-0.08,11.84,6.62,75.87,0.26,0.15,s47417
広尾,42.293333,143.316667,-0.01,9.93,6.0,82.63,0.54,0.33,s47440
根室,43.33,145.585,-0.3,7.49,5.29,88.06,0.1,-0.02,s47420
江差,41.866667,140.123333,0.13,12.52,2.44,78.47,0.07,-0.04,s47428
苫小牧,42.623333,141.546667,0.55,10.74,1.93,81.75,0.24,0.08,s47424
室蘭,42.311667,140.975,0.05,10.84,3.1,83.76,0.25,0.11,s47423
釧路,42.985,144.376667,0.34,9.1,3.6,83.61,0.26,0.12,s47418
函館,41.816667,140.753333,0.09,12.57,3.12,76.02,0.15,0.04,s47430
むつ,41.283333,141.21,-0.3,12.22,3.53,79.94,0.12,0.0,s47576
青森,40.821667,140.768333,-0.35,13.45,7.42,78.64,0.08,-0.01,s47575
深浦,40.645,139.931667,-0.37,13.33,-0.51,75.16,0.12,-0.03,s47574
八戸,40.526667,141.521667,-0.42,13.18,6.77,79.25,0.16,0.04,s47581
秋田,39.716667,140.098333,-0.21,15.22,2.52,73.57,0.14,-0.01,s47582
盛岡,39.698333,141.165,-0.01,14.81,3.67,71.78,0.12,-0.01,s47584
宮古,39.646667,141.965,-0.22,13.3,5.6,80.66,0.37,0.23,s47585
大船渡,39.063333,141.713333,-0.07,14.33,0.57,72.22,0.37,0.17,s47512
輪島,37.39,136.895,-0.85,15.44,4.82,76.54,0.1,-0.04,s47600
金沢,36.588333,136.633333,-0.87,17.08,4.12,69.62,0.14,-0.03,s47605
酒田,38.908333,139.843333,-0.58,15.39,5.65,75.77,0.18,0.03,s47587
新庄,38.756667,140.311667,-0.45,14.56,2.78,75.19,0.14,0.0,s47520
山形,38.255,140.345,-0.84,15.59,4.29,67.69,0.17,0.07,s47588
石巻,38.426667,141.298333,0.21,14.82,0.87,75.7,0.26,0.13,s47592
仙台,38.261667,140.896667,0.13,15.91,1.89,71.96,0.3,0.15,s47590
伏木,36.791667,137.055,-0.95,16.1,5.31,76.76,0.09,-0.06,s47606
富山,36.708333,137.201667,-1.22,16.62,4.0,74.09,0.13,-0.03,s47607
相川,38.028333,138.24,-0.51,15.55,1.04,72.93,0.1,-0.01,s47602
新潟,37.893333,139.018333,-0.74,16.33,2.56,70.81,0.17,0.06,s47604
高田,37.106667,138.246667,-0.76,16.42,0.96,71.32,0.09,-0.02,s47612
福島,37.758333,140.47,-0.48,16.91,3.88,66.62,0.19,0.08,s47595
若松,37.488333,139.91,-0.86,15.57,4.57,71.46,0.13,0.03,s47570
白河,37.131667,140.215,-0.62,15.12,3.93,73.15,0.34,0.18,s47597
小名浜,36.946667,140.903333,0.23,16.1,1.26,77.82,0.32,0.14,s47598
萩,34.41,131.405,-0.19,18.21,-2.17,70.24,0.06,-0.12,s47754
山口,34.161667,131.461667,-0.14,18.98,-2.04,64.37,0.1,-0.15,s47784
下関,33.948333,130.925,-0.1,19.14,0.77,70.9,0.05,-0.15,s47762
西郷,36.203333,133.333333,-0.88,15.91,2.45,76.6,0.09,-0.09,s47740
松江,35.456667,133.065,-0.59,17.58,2.14,72.77,0.09,-0.08,s47741
浜田,34.896667,132.07,-0.4,17.63,-1.92,70.5,0.1,-0.07,s47755
境,35.543333,133.235,-0.69,17.57,2.05,71.52,0.1,-0.06,s47742
鳥取,35.486667,134.238333,-0.85,17.44,3.15,70.24,0.14,-0.02,s47746
米子,35.433333,133.338333,-0.96,17.43,3.86,71.39,0.13,-0.02,s47744
豊岡,35.535,134.821667,-0.93,17.08,2.43,72.81,0.13,-0.02,s47747
姫路,34.838333,134.67,-0.47,18.24,-3.77,65.43,0.09,-0.07,s47769
神戸,34.696667,135.211667,-0.54,19.42,-3.49,60.53,0.03,-0.14,s47770
洲本,34.31,134.848333,-0.8,17.56,-0.52,72.6,0.05,-0.13,s47776
舞鶴,35.45,135.316667,-0.85,17.12,2.01,72.78,0.08,-0.09,s47750
京都,35.013333,135.731667,-0.88,18.81,1.24,60.0,0.06,-0.13,s47759
福井,36.055,136.221667,-0.94,17.33,3.62,70.85,0.14,-0.04,s47616
敦賀,35.653333,136.061667,-0.93,17.45,3.29,71.08,0.15,-0.03,s47631
高山,36.155,137.253333,-1.3,14.51,1.85,70.03,0.11,-0.05,s47617
岐阜,35.4,136.761667,-0.51,19.16,-0.51,60.8,0.09,-0.15,s47632
長野,36.661667,138.191667,-1.13,15.52,3.73,65.99,0.05,-0.04,s47610
軽井沢,36.341667,138.546667,-0.68,11.8,-0.04,75.26,0.18,0.03,s47622
松本,36.246667,137.97,-1.11,15.59,3.19,62.19,0.04,-0.09,s47618
諏訪,36.045,138.108333,-1.0,14.62,-0.37,65.69,0.14,-0.02,s47620
飯田,35.523333,137.821667,-0.77,16.31,-1.46,63.45,0.06,-0.15,s47637
前橋,36.405,139.06,-0.59,18.25,1.29,60.4,0.22,0.08,s47624
宇都宮,36.548333,139.868333,-0.33,17.75,0.95,68.64,0.43,0.24,s47615
水戸,36.38,140.466667,-0.05,17.22,3.8,77.09,0.47,0.28,s47629
福山,34.446667,133.246667,-0.27,18.55,-4.65,63.1,0.06,-0.1,s47767
広島,34.398333,132.461667,-0.11,19.63,-0.52,61.35,0.07,-0.16,s47765
呉,34.24,132.55,-0.3,18.86,-3.82,62.64,0.06,-0.14,s47766
津山,35.063333,134.008333,-0.57,17.18,-3.54,66.95,0.1,-0.09,s47756
岡山,34.685,133.925,-0.35,19.44,-3.2,59.58,0.06,-0.09,s47768
彦根,35.275,136.243333,-0.86,16.92,2.3,73.27,0.09,-0.09,s47761
甲府,35.666667,138.553333,-0.56,18.44,-0.55,60.18,0.05,-0.06,s47638
河口湖,35.5,138.76,-0.49,13.99,-3.36,68.92,0.22,0.05,s47640
熊谷,36.15,139.38,-0.47,18.65,2.25,65.59,0.31,0.16,s47626
秩父,35.99,139.073333,-0.5,16.97,-0.39,70.96,0.3,0.16,s47641
厳原,34.196667,129.291667,0.2,18.54,3.63,76.01,0.09,-0.24,s47800
平戸,33.36,129.55,-0.04,18.15,-0.46,79.05,0.07,-0.18,s47805
佐世保,33.158333,129.726667,0.23,19.95,-3.57,65.74,0.09,-0.13,s47812
長崎,32.733333,129.866667,0.14,19.94,1.8,73.17,0.07,-0.16,s47817
雲仙岳,32.736667,130.261667,0.05,16.13,-1.54,74.35,0.13,-0.24,s47818
福江,32.693333,128.826667,0.52,19.51,-1.95,72.64,0.14,-0.14,s47843
佐賀,33.265,130.305,0.07,20.36,0.44,65.06,0.07,-0.18,s47813
飯塚,33.651667,130.693333,-0.31,18.9,-1.77,68.36,0.05,-0.14,s47809
福岡,33.581667,130.375,0.0,20.11,1.63,67.52,0.06,-0.11,s47807
大阪,34.681667,135.518333,-0.59,19.63,-2.9,58.06,0.03,-0.14,s47772
奈良,34.673333,135.836667,-1.01,17.68,1.52,68.94,0.05,-0.13,s47780
四日市,34.94,136.58,-0.63,17.57,-0.03,72.82,0.15,-0.09,s47684
上野,34.761667,136.141667,-0.78,17.29,2.22,70.64,0.11,-0.07,s47649
津,34.733333,136.518333,-0.61,18.59,0.48,67.66,0.1,-0.11,s47651
尾鷲,34.068333,136.193333,-0.54,18.25,-2.5,71.27,0.8,0.35,s47663
名古屋,35.166667,136.965,-0.44,19.17,-0.45,61.71,0.07,-0.13,s47636
伊良湖,34.628333,137.093333,-0.49,18.49,-0.25,72.47,0.16,-0.05,s47653
三島,35.113333,138.925,-0.3,18.82,-2.05,67.42,0.18,-0.02,s47657
網代,35.045,139.091667,-0.16,18.5,-0.99,70.52,0.43,0.21,s47668
静岡,34.975,138.403333,-0.23,19.16,-1.99,68.56,0.32,0.03,s47656
浜松,34.753333,137.711667,-0.48,18.85,1.36,72.05,0.15,-0.12,s47654
御前崎,34.603333,138.213333,-0.15,18.62,-1.45,76.71,0.45,0.16,s47655
石廊崎,34.603333,138.841667,0.04,18.57,-1.25,77.09,0.37,0.14,s47666
横浜,35.438333,139.651667,-0.07,18.95,1.03,70.27,0.32,0.11,s47670
東京,35.691667,139.75,0.13,19.58,0.42,65.43,0.31,0.12,s47662
大島,34.748333,139.361667,0.04,18.36,-0.14,78.99,0.72,0.36,s47675
三宅島,34.123333,139.52,-0.2,19.07,-2.5,76.27,0.2,-0.13,s47677
八丈島,33.121667,139.778333,-0.45,18.69,-2.11,79.64,0.49,0.12,s47678
父島,27.091667,142.19,-0.73,22.64,3.34,87.98,0.2,0.01,s47971
南鳥島,24.288333,153.983333,-0.26,25.9,-3.36,76.36,0.12,-0.04,s47991
銚子,35.738333,140.856667,0.59,18.13,-1.64,80.33,0.13,-0.06,s47648
千葉,35.601667,140.103333,0.16,19.2,-0.79,69.46,0.23,0.06,s47682
勝浦,35.15,140.311667,0.34,18.53,-0.97,78.95,0.17,-0.05,s47674
館山,34.986667,139.865,0.15,18.83,-1.04,76.02,0.23,0.03,s47672
熊本,32.813333,130.706667,-0.0,20.76,-1.46,64.34,0.08,-0.15,s47819
人吉,32.216667,130.755,-0.1,19.17,-2.91,69.81,0.1,-0.2,s47824
牛深,32.196667,130.026667,0.04,20.28,-0.38,72.79,0.12,-0.13,s47838
日田,33.321667,130.928333,-0.33,19.28,0.08,66.69,0.05,-0.13,s47814
大分,33.235,131.618333,-0.42,19.16,-0.93,66.25,0.12,-0.06,s47815
松山,33.843333,132.776667,-0.49,19.11,0.93,64.18,0.05,-0.12,s47887
宇和島,33.226667,132.551667,-0.61,19.0,-0.16,70.69,0.07,-0.14,s47892
高松,34.318333,134.053333,-0.48,19.44,-0.67,61.82,0.05,-0.08,s47891
多度津,34.275,133.751667,-0.49,18.68,-3.25,62.7,0.06,-0.07,s47890
和歌山,34.228333,135.163333,-0.75,19.12,-4.35,59.63,0.05,-0.12,s47777
潮岬,33.45,135.756667,-0.3,19.11,-5.16,70.36,0.25,-0.06,s47778
阿久根,32.026667,130.2,-0.15,19.52,-0.76,75.55,0.1,-0.16,s47823
鹿児島,31.555,130.546667,0.06,21.24,2.69,73.06,0.11,-0.17,s47827
枕崎,31.271667,130.291667,-0.09,20.13,-1.8,72.98,0.12,-0.16,s47831
種子島,30.72,130.981667,-0.48,20.8,-0.09,76.4,0.16,-0.15,s47837
名瀬,28.378333,129.495,-0.52,22.33,0.55,77.29,0.47,0.08,s47909
屋久島,30.385,130.658333,-0.33,20.83,2.56,77.95,0.24,-0.36,s47836
沖永良部,27.431667,128.705,-0.16,22.93,-1.32,80.81,0.35,0.06,s47942
延岡,32.581667,131.656667,0.3,19.96,-3.33,71.16,0.2,-0.15,s47822
宮崎,31.938333,131.413333,-0.06,20.36,-1.69,72.22,0.17,-0.14,s47830
都城,31.73,131.081667,-0.05,19.89,-2.18,69.73,0.12,-0.17,s47829
油津,31.578333,131.406667,0.0,20.63,-3.14,70.9,0.32,-0.02,s47835
高知,33.566667,133.548333,-0.03,20.16,-3.79,66.04,0.12,-0.25,s47893
室戸岬,33.251667,134.176667,-0.08,18.76,-4.89,74.48,0.11,-0.2,s47899
宿毛,32.92,132.695,-0.25,19.44,-1.93,70.13,0.08,-0.19,s47897
清水,32.721667,133.01,-0.16,20.34,-3.13,71.05,0.15,-0.18,s47898
徳島,34.066667,134.573333,-0.6,19.1,-2.38,63.91,0.09,-0.09,s47895
名護,26.593333,127.965,-0.04,23.77,-2.32,77.47,0.4,0.1,s47940
那覇,26.206667,127.686667,0.04,24.37,-1.0,77.4,0.31,-0.03,s47936
石垣島,24.336667,124.163333,-0.13,26.01,-0.09,79.42,0.29,0.03,s47918
宮古島,24.793333,125.278333,-0.11,25.1,0.59,82.03,0.36,0.08,s47927
久米島,26.336667,126.803333,0.01,24.31,-0.6,79.88,0.24,-0.1,s47929
西表島,24.426667,123.765,-0.15,25.36,-3.1,79.17,0.22,-0.0,s47917
与那国島,24.466667,123.01,-0.13,25.49,-3.35,78.44,0.3,0.03,s47912
