站名,緯度,經度,平均溫距平,本年度平均溫,平均溼度距平,本年度日均相對溼度,本年度日均降水量,日均降水量距平,站號
稚内,45.415,141.678333,0.42,20.22,0.26,84.08,0.16,-0.01,s47401
北見枝幸,44.94,142.585,0.06,19.41,3.17,86.46,0.39,0.2,s47402
羽幌,44.363333,141.7,0.87,21.95,0.63,81.1,0.33,0.15,s47404
留萌,43.945,141.631667,0.95,22.01,-0.58,82.73,0.29,0.12,s47406
旭川,43.756667,142.371667,0.55,21.95,-0.71,77.67,0.3,0.07,s47407
雄武,44.58,142.963333,0.33,19.45,-1.08,83.59,0.24,0.05,s47405
紋別,44.345,143.355,0.33,19.92,2.9,85.65,0.21,0.04,s47435
網走,44.016667,144.278333,0.39,20.22,3.75,84.23,0.16,-0.0,s47409
岩見沢,43.211667,141.785,0.68,22.24,3.21,84.17,0.26,0.04,s47413
小樽,43.181667,141.015,0.89,22.73,0.85,78.96,0.19,0.01,s47411
倶知安,42.9,140.756667,0.66,21.48,0.58,83.54,0.22,0.01,s47433
寿都,42.795,140.223333,0.96,22.35,-0.44,83.45,0.17,-0.0,s47421
札幌,43.06,141.328333,0.51,23.08,5.07,79.26,0.25,0.07,s47412
浦河,42.161667,142.776667,1.1,21.26,0.48,91.02,0.29,0.09,s47426
帯広,42.921667,143.211667,0.19,20.78,3.57,85.19,0.14,-0.04,s47417
広尾,42.293333,143.316667,0.5,19.46,3.44,91.08,0.24,-0.02,s47440
根室,43.33,145.585,0.13,17.7,4.45,93.7,0.1,-0.07,s47420
江差,41.866667,140.123333,1.15,23.93,1.22,80.42,0.48,0.27,s47428
苫小牧,42.623333,141.546667,0.9,21.53,-0.02,86.35,0.56,0.3,s47424
室蘭,42.311667,140.975,1.19,22.07,1.79,91.13,0.37,0.14,s47423
釧路,42.985,144.376667,0.66,19.23,2.13,90.04,0.12,-0.07,s47418
函館,41.816667,140.753333,1.2,23.56,1.2,81.3,0.3,0.11,s47430
むつ,41.283333,141.21,1.11,23.12,-1.9,83.09,0.36,0.12,s47576
青森,40.821667,140.768333,1.07,24.73,-3.32,74.72,0.41,0.22,s47575
深浦,40.645,139.931667,0.33,23.71,1.04,84.26,0.44,0.19,s47574
八戸,40.526667,141.521667,1.22,23.99,-3.84,79.1,0.19,0.0,s47581
秋田,39.716667,140.098333,0.15,25.45,1.53,77.69,0.31,0.07,s47582
盛岡,39.698333,141.165,0.38,24.19,-0.56,78.52,0.3,0.05,s47584
宮古,39.646667,141.965,0.65,22.89,0.06,87.2,0.15,-0.07,s47585
大船渡,39.063333,141.713333,0.3,23.65,-0.28,81.49,0.1,-0.14,s47512
輪島,37.39,136.895,0.72,26.84,-0.56,77.54,0.4,0.16,s47600
金沢,36.588333,136.633333,0.55,28.19,-0.85,69.79,0.4,0.17,s47605
酒田,38.908333,139.843333,0.23,25.97,2.43,78.25,0.31,0.01,s47587
新庄,38.756667,140.311667,0.21,24.61,1.4,81.88,0.27,-0.0,s47520
山形,38.255,140.345,0.34,25.6,-1.52,73.37,0.17,-0.03,s47588
石巻,38.426667,141.298333,0.5,24.27,-2.78,79.38,0.15,0.02,s47592
仙台,38.261667,140.896667,0.97,25.63,-4.61,76.24,0.12,-0.07,s47590
伏木,36.791667,137.055,0.75,27.77,-2.53,74.12,0.54,0.29,s47606
富山,36.708333,137.201667,0.64,27.87,-4.04,72.5,0.54,0.27,s47607
相川,38.028333,138.24,0.36,26.47,-0.03,77.6,0.2,0.03,s47602
新潟,37.893333,139.018333,0.13,26.94,1.36,75.48,0.36,0.16,s47604
高田,37.106667,138.246667,-0.07,26.56,1.97,79.83,0.38,0.14,s47612
福島,37.758333,140.47,0.82,26.55,-4.11,71.48,0.14,-0.05,s47595
若松,37.488333,139.91,0.03,25.42,2.17,78.53,0.16,-0.01,s47570
白河,37.131667,140.215,0.9,24.83,-2.97,79.45,0.24,0.0,s47597
小名浜,36.946667,140.903333,0.67,25.23,-1.6,82.43,0.11,-0.04,s47598
萩,34.41,131.405,1.1,28.47,-4.15,72.88,0.47,0.24,s47754
山口,34.161667,131.461667,0.84,28.58,2.23,75.01,0.44,0.18,s47784
下関,33.948333,130.925,1.02,29.17,-0.38,74.38,0.37,0.13,s47762
西郷,36.203333,133.333333,0.9,27.23,0.5,80.49,0.2,-0.0,s47740
松江,35.456667,133.065,0.83,28.2,2.49,78.4,0.33,0.17,s47741
浜田,34.896667,132.07,0.86,27.93,-3.96,74.68,0.75,0.56,s47755
境,35.543333,133.235,0.7,28.2,-0.9,74.55,0.34,0.16,s47742
鳥取,35.486667,134.238333,0.59,28.09,1.13,74.08,0.35,0.17,s47746
米子,35.433333,133.338333,0.75,28.28,1.83,75.9,0.35,0.18,s47744
豊岡,35.535,134.821667,0.56,27.83,1.18,77.17,0.31,0.11,s47747
姫路,34.838333,134.67,0.33,28.27,1.22,74.31,0.16,0.01,s47769
神戸,34.696667,135.211667,0.64,29.44,-1.47,68.46,0.17,0.03,s47770
洲本,34.31,134.848333,0.78,27.79,-2.17,76.65,0.11,-0.07,s47776
舞鶴,35.45,135.316667,0.46,27.81,1.57,77.08,0.19,-0.01,s47750
京都,35.013333,135.731667,0.55,29.25,-0.71,63.82,0.14,-0.07,s47759
福井,36.055,136.221667,0.35,27.98,0.6,73.15,0.31,0.12,s47616
敦賀,35.653333,136.061667,0.4,28.34,1.04,72.59,0.33,0.13,s47631
高山,36.155,137.253333,0.23,24.83,-2.88,73.69,0.27,0.01,s47617
岐阜,35.4,136.761667,0.77,29.27,-3.75,64.12,0.24,0.01,s47632
長野,36.661667,138.191667,-0.16,25.37,3.19,75.77,0.32,0.16,s47610
軽井沢,36.341667,138.546667,0.98,21.93,-5.39,82.31,0.14,-0.05,s47622
松本,36.246667,137.97,0.35,25.54,-1.18,68.6,0.23,0.09,s47618
諏訪,36.045,138.108333,0.53,24.71,-4.01,71.53,0.3,0.11,s47620
飯田,35.523333,137.821667,0.67,26.14,-3.09,70.34,0.12,-0.08,s47637
前橋,36.405,139.06,1.05,28.1,-4.32,66.49,0.25,-0.0,s47624
宇都宮,36.548333,139.868333,0.73,26.94,-2.25,74.76,0.22,-0.06,s47615
水戸,36.38,140.466667,0.79,26.61,-0.59,78.81,0.14,-0.01,s47629
福山,34.446667,133.246667,0.63,28.75,-0.01,72.21,0.23,0.11,s47767
広島,34.398333,132.461667,0.9,29.47,2.3,70.36,0.32,0.15,s47765
呉,34.24,132.55,0.8,28.84,1.29,73.16,0.34,0.2,s47766
津山,35.063333,134.008333,0.16,26.6,2.09,79.84,0.38,0.2,s47756
岡山,34.685,133.925,0.6,29.28,-0.05,68.96,0.15,0.02,s47768
彦根,35.275,136.243333,0.57,28.32,-0.96,71.48,0.12,-0.05,s47761
甲府,35.666667,138.553333,1.28,28.49,-4.77,64.61,0.05,-0.14,s47638
河口湖,35.5,138.76,0.88,23.55,-5.28,75.6,0.06,-0.18,s47640
熊谷,36.15,139.38,0.95,28.37,-2.04,70.94,0.21,-0.0,s47626
秩父,35.99,139.073333,1.15,26.84,-4.43,76.16,0.11,-0.12,s47641
厳原,34.196667,129.291667,1.74,28.76,-5.05,75.83,0.56,0.19,s47800
平戸,33.36,129.55,1.09,27.78,-1.5,83.21,0.86,0.47,s47805
佐世保,33.158333,129.726667,0.82,29.11,0.23,74.25,0.69,0.36,s47812
長崎,32.733333,129.866667,1.02,29.29,0.19,75.48,0.27,-0.01,s47817
雲仙岳,32.736667,130.261667,0.62,24.13,2.25,88.75,0.74,0.3,s47818
福江,32.693333,128.826667,1.33,28.78,-1.58,78.65,0.31,-0.01,s47843
佐賀,33.265,130.305,0.88,29.27,4.33,76.09,0.65,0.32,s47813
飯塚,33.651667,130.693333,0.95,28.45,-3.2,74.38,0.84,0.56,s47809
福岡,33.581667,130.375,1.34,29.98,0.28,71.49,0.67,0.39,s47807
大阪,34.681667,135.518333,0.87,30.02,-3.07,62.56,0.17,0.01,s47772
奈良,34.673333,135.836667,0.34,27.82,1.36,74.13,0.27,0.09,s47780
四日市,34.94,136.58,0.86,27.82,-5.2,74.38,0.1,-0.13,s47684
上野,34.761667,136.141667,0.55,27.53,-0.44,73.29,0.11,-0.08,s47649
津,34.733333,136.518333,1.07,29.17,-4.37,67.78,0.11,-0.11,s47651
尾鷲,34.068333,136.193333,1.49,28.37,-7.76,72.18,0.1,-0.53,s47663
名古屋,35.166667,136.965,0.86,29.26,-2.72,65.61,0.18,-0.02,s47636
伊良湖,34.628333,137.093333,1.1,28.78,-3.91,74.35,0.05,-0.12,s47653
三島,35.113333,138.925,0.71,28.18,-3.27,70.25,0.11,-0.11,s47657
網代,35.045,139.091667,0.91,27.52,-5.39,72.78,0.14,-0.11,s47668
静岡,34.975,138.403333,0.78,28.35,-1.53,74.21,0.12,-0.15,s47656
浜松,34.753333,137.711667,1.16,28.82,-5.03,72.78,0.05,-0.14,s47654
御前崎,34.603333,138.213333,0.91,27.87,-0.03,83.99,0.04,-0.18,s47655
石廊崎,34.603333,138.841667,0.9,27.25,-1.22,83.76,0.08,-0.1,s47666
横浜,35.438333,139.651667,1.16,28.38,-1.0,74.12,0.11,-0.08,s47670
東京,35.691667,139.75,1.43,29.18,-2.51,69.56,0.13,-0.07,s47662
大島,34.748333,139.361667,1.06,27.28,-1.48,84.25,0.06,-0.22,s47675
三宅島,34.123333,139.52,0.93,27.63,-4.37,81.51,0.07,-0.24,s47677
八丈島,33.121667,139.778333,0.84,27.36,-4.14,83.19,0.15,-0.09,s47678
父島,27.091667,142.19,-0.14,27.85,0.8,83.59,0.05,-0.1,s47971
南鳥島,24.288333,153.983333,0.55,28.9,-1.69,78.33,0.12,-0.13,s47991
銚子,35.738333,140.856667,1.32,27.03,-4.39,82.91,0.06,-0.08,s47648
千葉,35.601667,140.103333,1.16,28.48,-3.42,72.73,0.06,-0.1,s47682
勝浦,35.15,140.311667,0.66,26.7,0.76,86.27,0.05,-0.12,s47674
館山,34.986667,139.865,1.01,27.88,-2.77,78.55,0.04,-0.11,s47672
熊本,32.813333,130.706667,0.37,29.0,3.57,74.94,0.77,0.5,s47819
人吉,32.216667,130.755,0.48,27.27,-0.67,77.98,0.48,0.19,s47824
牛深,32.196667,130.026667,1.08,29.51,-1.41,74.73,0.2,-0.04,s47838
日田,33.321667,130.928333,0.7,28.24,-0.42,73.17,0.4,0.14,s47814
大分,33.235,131.618333,1.34,29.32,-2.06,70.88,0.12,-0.09,s47815
松山,33.843333,132.776667,0.92,29.22,0.58,69.73,0.16,0.03,s47887
宇和島,33.226667,132.551667,1.31,29.05,-3.05,72.76,0.09,-0.15,s47892
高松,34.318333,134.053333,0.98,29.83,-2.55,66.37,0.19,0.03,s47891
多度津,34.275,133.751667,0.81,29.26,5.58,76.09,0.24,0.11,s47890
和歌山,34.228333,135.163333,0.78,29.29,0.54,69.82,0.07,-0.08,s47777
潮岬,33.45,135.756667,0.9,27.9,-2.32,81.24,0.06,-0.32,s47778
阿久根,32.026667,130.2,0.94,28.55,0.33,80.08,0.19,-0.1,s47823
鹿児島,31.555,130.546667,0.93,29.97,-0.0,73.2,0.13,-0.14,s47827
枕崎,31.271667,130.291667,0.74,28.71,-2.04,75.8,0.2,-0.03,s47831
種子島,30.72,130.981667,0.83,29.01,0.48,81.02,0.11,-0.14,s47837
名瀬,28.378333,129.495,0.74,29.41,-1.38,76.49,0.16,-0.24,s47909
屋久島,30.385,130.658333,0.58,28.22,-0.67,80.79,0.15,-0.18,s47836
沖永良部,27.431667,128.705,0.64,29.44,-4.44,76.81,0.09,-0.17,s47942
延岡,32.581667,131.656667,1.13,28.3,-7.04,74.31,0.09,-0.25,s47822
宮崎,31.938333,131.413333,1.42,29.28,-5.75,73.08,0.1,-0.25,s47830
都城,31.73,131.081667,0.92,28.12,-2.68,75.26,0.17,-0.21,s47829
油津,31.578333,131.406667,1.24,29.16,-6.05,73.35,0.08,-0.22,s47835
高知,33.566667,133.548333,0.96,29.02,-3.35,73.1,0.12,-0.27,s47893
室戸岬,33.251667,134.176667,1.23,27.59,-6.96,80.29,0.02,-0.27,s47899
宿毛,32.92,132.695,0.93,28.47,-3.14,74.82,0.12,-0.22,s47897
清水,32.721667,133.01,0.82,28.64,-2.62,79.24,0.02,-0.32,s47898
徳島,34.066667,134.573333,0.76,29.03,-0.65,71.63,0.14,-0.14,s47895
名護,26.593333,127.965,0.67,29.55,-1.92,77.0,0.13,-0.24,s47940
那覇,26.206667,127.686667,0.56,29.61,-1.6,75.59,0.29,-0.05,s47936
石垣島,24.336667,124.163333,0.23,29.65,2.09,80.26,0.27,-0.09,s47918
宮古島,24.793333,125.278333,0.36,29.06,-1.37,79.41,0.22,-0.14,s47927
久米島,26.336667,126.803333,0.65,29.69,0.15,80.72,0.04,-0.22,s47929
西表島,24.426667,123.765,-0.02,28.54,-0.85,81.85,0.35,-0.04,s47917
与那国島,24.466667,123.01,0.16,28.88,-1.52,80.38,0.31,0.01,s47912
