站名,緯度,經度,平均溫距平,本年度平均溫,平均溼度距平,本年度日均相對溼度,本年度日均降水量,日均降水量距平,站號
稚内,45.415,141.678333,-0.84,18.95,-2.03,81.79,0.03,-0.14,s47401
北見枝幸,44.94,142.585,-1.04,18.32,2.65,85.93,0.03,-0.17,s47402
羽幌,44.363333,141.7,-0.29,20.79,1.57,82.04,0.07,-0.11,s47404
留萌,43.945,141.631667,-0.15,20.9,-0.29,83.03,0.07,-0.11,s47406
旭川,43.756667,142.371667,-0.52,20.88,0.86,79.24,0.12,-0.1,s47407
雄武,44.58,142.963333,-1.09,18.04,3.01,87.68,0.07,-0.12,s47405
紋別,44.345,143.355,-1.08,18.5,4.19,86.93,0.06,-0.11,s47435
網走,44.016667,144.278333,-1.22,18.62,2.29,82.78,0.09,-0.08,s47409
岩見沢,43.211667,141.785,-0.09,21.46,-0.51,80.44,0.14,-0.08,s47413
小樽,43.181667,141.015,-0.08,21.75,3.0,81.1,0.07,-0.11,s47411
倶知安,42.9,140.756667,-0.03,20.79,1.15,84.11,0.16,-0.05,s47433
寿都,42.795,140.223333,0.23,21.62,-2.87,81.02,0.07,-0.1,s47421
札幌,43.06,141.328333,-0.13,22.44,-1.04,73.15,0.18,0.0,s47412
浦河,42.161667,142.776667,-0.07,20.09,-2.24,88.31,0.11,-0.09,s47426
帯広,42.921667,143.211667,-0.45,20.15,-0.56,81.05,0.16,-0.02,s47417
広尾,42.293333,143.316667,-0.41,18.55,1.45,89.09,0.19,-0.06,s47440
根室,43.33,145.585,-0.46,17.11,-1.51,87.74,0.27,0.1,s47420
江差,41.866667,140.123333,-0.08,22.7,-2.37,76.83,0.12,-0.08,s47428
苫小牧,42.623333,141.546667,0.13,20.76,-0.21,86.16,0.08,-0.17,s47424
室蘭,42.311667,140.975,0.1,20.98,0.22,89.56,0.1,-0.14,s47423
釧路,42.985,144.376667,-0.15,18.43,-2.04,85.88,0.19,0.0,s47418
函館,41.816667,140.753333,-0.17,22.19,0.93,81.03,0.1,-0.09,s47430
むつ,41.283333,141.21,-0.26,21.75,0.62,85.61,0.21,-0.03,s47576
青森,40.821667,140.768333,-0.05,23.61,-1.22,76.82,0.1,-0.1,s47575
深浦,40.645,139.931667,-0.15,23.24,1.97,85.19,0.1,-0.14,s47574
八戸,40.526667,141.521667,-0.43,22.34,0.96,83.89,0.2,0.02,s47581
秋田,39.716667,140.098333,-0.48,24.82,-3.7,72.46,0.2,-0.04,s47582
盛岡,39.698333,141.165,-0.42,23.38,-1.02,78.05,0.18,-0.07,s47584
宮古,39.646667,141.965,-0.52,21.72,3.13,90.27,0.22,-0.0,s47585
大船渡,39.063333,141.713333,-0.09,23.25,-0.61,81.16,0.4,0.16,s47512
輪島,37.39,136.895,-0.74,25.38,1.44,79.53,0.12,-0.11,s47600
金沢,36.588333,136.633333,-0.66,26.98,2.29,72.93,0.17,-0.07,s47605
酒田,38.908333,139.843333,-0.72,25.02,-1.43,74.38,0.18,-0.11,s47587
新庄,38.756667,140.311667,-0.59,23.82,-1.71,78.78,0.12,-0.15,s47520
山形,38.255,140.345,-0.98,24.28,0.04,74.93,0.14,-0.06,s47588
石巻,38.426667,141.298333,-0.3,23.46,1.75,83.91,0.15,0.01,s47592
仙台,38.261667,140.896667,-0.31,24.35,-1.89,78.95,0.3,0.1,s47590
伏木,36.791667,137.055,-0.48,26.54,2.68,79.32,0.18,-0.07,s47606
富山,36.708333,137.201667,-0.57,26.65,-4.29,72.25,0.22,-0.05,s47607
相川,38.028333,138.24,-0.75,25.36,-1.4,76.24,0.08,-0.09,s47602
新潟,37.893333,139.018333,-0.98,25.83,1.04,75.16,0.15,-0.05,s47604
高田,37.106667,138.246667,-0.65,25.99,1.12,78.98,0.17,-0.07,s47612
福島,37.758333,140.47,-1.03,24.7,5.15,80.74,0.22,0.03,s47595
若松,37.488333,139.91,-0.64,24.75,0.62,76.98,0.12,-0.05,s47570
白河,37.131667,140.215,-1.04,22.89,3.31,85.73,0.19,-0.05,s47597
小名浜,36.946667,140.903333,-0.1,24.47,2.09,86.13,0.13,-0.02,s47598
萩,34.41,131.405,-1.56,25.82,5.62,82.65,0.34,0.11,s47754
山口,34.161667,131.461667,-1.0,26.75,2.81,75.59,0.38,0.12,s47784
下関,33.948333,130.925,-1.25,26.9,4.17,78.92,0.4,0.16,s47762
西郷,36.203333,133.333333,-1.22,25.11,4.73,84.72,0.18,-0.03,s47740
松江,35.456667,133.065,-1.22,26.16,5.54,81.45,0.14,-0.02,s47741
浜田,34.896667,132.07,-1.53,25.54,4.48,83.12,0.23,0.04,s47755
境,35.543333,133.235,-1.2,26.3,5.23,80.68,0.13,-0.05,s47742
鳥取,35.486667,134.238333,-1.23,26.27,4.72,77.67,0.18,-0.0,s47746
米子,35.433333,133.338333,-1.39,26.15,3.51,77.58,0.1,-0.06,s47744
豊岡,35.535,134.821667,-1.02,26.25,5.71,81.7,0.16,-0.04,s47747
姫路,34.838333,134.67,-0.75,27.19,3.35,76.44,0.24,0.1,s47769
神戸,34.696667,135.211667,-0.46,28.34,-0.46,69.47,0.18,0.04,s47770
洲本,34.31,134.848333,-0.89,26.12,3.77,82.59,0.16,-0.02,s47776
舞鶴,35.45,135.316667,-0.94,26.4,6.36,81.86,0.15,-0.05,s47750
京都,35.013333,135.731667,-0.36,28.33,2.43,66.96,0.33,0.12,s47759
福井,36.055,136.221667,-0.72,26.91,3.88,76.42,0.15,-0.04,s47616
敦賀,35.653333,136.061667,-0.83,27.11,1.92,73.47,0.14,-0.05,s47631
高山,36.155,137.253333,-0.28,24.33,2.05,78.62,0.37,0.11,s47617
岐阜,35.4,136.761667,-0.27,28.24,2.48,70.35,0.52,0.3,s47632
長野,36.661667,138.191667,-0.77,24.76,5.81,78.4,0.19,0.04,s47610
軽井沢,36.341667,138.546667,-0.9,20.05,3.5,91.2,0.21,0.02,s47622
松本,36.246667,137.97,-0.54,24.65,2.5,72.27,0.24,0.1,s47618
諏訪,36.045,138.108333,-0.39,23.79,0.7,76.23,0.26,0.07,s47620
飯田,35.523333,137.821667,-0.13,25.35,2.02,75.45,0.26,0.06,s47637
前橋,36.405,139.06,-0.8,26.24,3.2,74.01,0.38,0.13,s47624
宇都宮,36.548333,139.868333,-0.78,25.44,-0.61,76.4,0.14,-0.14,s47615
水戸,36.38,140.466667,-0.25,25.57,1.83,81.22,0.06,-0.09,s47629
福山,34.446667,133.246667,-1.28,26.84,6.99,79.2,0.22,0.1,s47767
広島,34.398333,132.461667,-1.06,27.51,-0.23,67.83,0.29,0.12,s47765
呉,34.24,132.55,-1.13,26.9,4.79,76.66,0.39,0.25,s47766
津山,35.063333,134.008333,-0.78,25.67,3.38,81.12,0.24,0.05,s47756
岡山,34.685,133.925,-1.25,27.43,5.46,74.47,0.13,0.0,s47768
彦根,35.275,136.243333,-0.38,27.37,0.78,73.21,0.21,0.04,s47761
甲府,35.666667,138.553333,-0.02,27.19,0.34,69.72,0.17,-0.02,s47638
河口湖,35.5,138.76,-0.39,22.28,2.07,82.96,0.16,-0.08,s47640
熊谷,36.15,139.38,-0.68,26.74,0.82,73.8,0.24,0.03,s47626
秩父,35.99,139.073333,-0.69,25.01,1.85,82.44,0.22,-0.01,s47641
厳原,34.196667,129.291667,-1.1,25.92,1.09,81.97,0.46,0.08,s47800
平戸,33.36,129.55,-1.1,25.59,5.07,89.78,0.54,0.16,s47805
佐世保,33.158333,129.726667,-1.35,26.94,6.48,80.5,0.44,0.11,s47812
長崎,32.733333,129.866667,-1.51,26.76,6.02,81.3,0.56,0.28,s47817
雲仙岳,32.736667,130.261667,-1.17,22.34,3.23,89.73,1.01,0.57,s47818
福江,32.693333,128.826667,-1.39,26.06,5.23,85.46,0.32,-0.0,s47843
佐賀,33.265,130.305,-0.89,27.5,4.19,75.96,0.42,0.08,s47813
飯塚,33.651667,130.693333,-1.19,26.31,5.17,82.74,0.46,0.18,s47809
福岡,33.581667,130.375,-1.23,27.41,6.47,77.68,0.43,0.15,s47807
大阪,34.681667,135.518333,-0.56,28.6,3.19,68.82,0.25,0.09,s47772
奈良,34.673333,135.836667,-0.47,27.01,4.9,77.67,0.24,0.06,s47780
四日市,34.94,136.58,-0.27,26.69,1.36,80.93,0.57,0.33,s47684
上野,34.761667,136.141667,-0.23,26.75,2.6,76.33,0.25,0.05,s47649
津,34.733333,136.518333,-0.26,27.84,2.92,75.07,0.62,0.41,s47651
尾鷲,34.068333,136.193333,-0.03,26.85,0.56,80.5,1.31,0.68,s47663
名古屋,35.166667,136.965,-0.26,28.15,2.28,70.6,0.4,0.2,s47636
伊良湖,34.628333,137.093333,-0.11,27.57,5.26,83.52,0.4,0.23,s47653
三島,35.113333,138.925,-0.1,27.37,2.41,75.93,0.22,0.01,s47657
網代,35.045,139.091667,-0.31,26.29,2.38,80.55,0.19,-0.06,s47668
静岡,34.975,138.403333,-0.03,27.55,-0.67,75.06,0.27,0.0,s47656
浜松,34.753333,137.711667,-0.13,27.53,2.18,79.99,0.32,0.13,s47654
御前崎,34.603333,138.213333,0.11,27.08,0.33,84.34,0.38,0.16,s47655
石廊崎,34.603333,138.841667,0.02,26.38,1.23,86.21,0.22,0.04,s47666
横浜,35.438333,139.651667,-0.44,26.79,3.79,78.91,0.16,-0.03,s47670
東京,35.691667,139.75,-1.06,26.68,6.12,78.18,0.14,-0.07,s47662
大島,34.748333,139.361667,0.07,26.29,-0.9,84.83,0.36,0.08,s47675
三宅島,34.123333,139.52,0.07,26.78,-0.25,85.64,0.18,-0.13,s47677
八丈島,33.121667,139.778333,-0.12,26.4,0.61,87.93,0.09,-0.15,s47678
父島,27.091667,142.19,-0.11,27.88,0.95,83.74,0.5,0.34,s47971
南鳥島,24.288333,153.983333,0.64,28.98,-0.34,79.67,0.12,-0.13,s47991
銚子,35.738333,140.856667,-0.52,25.19,3.46,90.76,0.23,0.09,s47648
千葉,35.601667,140.103333,-0.54,26.78,1.82,77.97,0.14,-0.02,s47682
勝浦,35.15,140.311667,-0.41,25.62,1.7,87.22,0.14,-0.03,s47674
館山,34.986667,139.865,-0.12,26.75,1.64,82.95,0.29,0.13,s47672
熊本,32.813333,130.706667,-1.21,27.42,5.43,76.8,0.31,0.04,s47819
人吉,32.216667,130.755,-0.74,26.04,3.3,81.95,0.49,0.2,s47824
牛深,32.196667,130.026667,-1.45,26.98,6.24,82.38,0.51,0.27,s47838
日田,33.321667,130.928333,-0.87,26.68,5.66,79.26,0.48,0.22,s47814
大分,33.235,131.618333,-0.77,27.21,2.44,75.38,0.19,-0.02,s47815
松山,33.843333,132.776667,-1.23,27.08,5.69,74.83,0.24,0.11,s47887
宇和島,33.226667,132.551667,-0.91,26.83,7.24,83.06,0.33,0.09,s47892
高松,34.318333,134.053333,-0.7,28.15,2.78,71.7,0.19,0.03,s47891
多度津,34.275,133.751667,-0.74,27.71,4.96,75.46,0.19,0.06,s47890
和歌山,34.228333,135.163333,-0.32,28.19,5.35,74.63,0.16,0.0,s47777
潮岬,33.45,135.756667,0.09,27.09,0.1,83.66,0.3,-0.09,s47778
阿久根,32.026667,130.2,-1.35,26.25,7.86,87.6,0.62,0.34,s47823
鹿児島,31.555,130.546667,-1.08,27.95,4.52,77.73,0.51,0.25,s47827
枕崎,31.271667,130.291667,-0.92,27.05,4.45,82.29,0.56,0.33,s47831
種子島,30.72,130.981667,-0.6,27.59,2.68,83.22,0.35,0.11,s47837
名瀬,28.378333,129.495,-0.38,28.29,1.73,79.6,0.26,-0.13,s47909
屋久島,30.385,130.658333,-0.64,27.0,0.28,81.75,0.49,0.16,s47836
沖永良部,27.431667,128.705,-0.38,28.41,1.64,82.88,0.29,0.03,s47942
延岡,32.581667,131.656667,-0.61,26.57,3.86,85.21,0.42,0.08,s47822
宮崎,31.938333,131.413333,-0.66,27.2,1.33,80.15,0.36,0.01,s47830
都城,31.73,131.081667,-0.5,26.7,5.54,83.48,0.5,0.11,s47829
油津,31.578333,131.406667,-0.78,27.14,2.81,82.2,0.36,0.06,s47835
高知,33.566667,133.548333,-0.5,27.57,1.93,78.37,0.41,0.03,s47893
室戸岬,33.251667,134.176667,-0.14,26.23,1.25,88.5,0.16,-0.13,s47899
宿毛,32.92,132.695,-0.35,27.19,2.38,80.34,0.31,-0.03,s47897
清水,32.721667,133.01,-0.28,27.54,0.73,82.59,0.18,-0.16,s47898
徳島,34.066667,134.573333,-0.61,27.66,1.94,74.23,0.39,0.11,s47895
名護,26.593333,127.965,-0.26,28.63,1.86,80.78,0.36,-0.01,s47940
那覇,26.206667,127.686667,-0.38,28.67,2.01,79.19,0.37,0.04,s47936
石垣島,24.336667,124.163333,-0.46,28.96,4.97,83.14,0.83,0.47,s47918
宮古島,24.793333,125.278333,-0.23,28.46,2.83,83.6,0.44,0.08,s47927
久米島,26.336667,126.803333,-0.24,28.79,0.86,81.42,0.38,0.13,s47929
西表島,24.426667,123.765,-0.05,28.51,1.19,83.88,0.97,0.58,s47917
与那国島,24.466667,123.01,-0.44,28.28,4.58,86.47,1.05,0.74,s47912
