站名,緯度,經度,平均溫距平,本年度平均溫,平均溼度距平,本年度日均相對溼度,本年度日均降水量,日均降水量距平,站號
稚内,45.415,141.678333,-0.96,10.36,-5.49,61.64,0.25,0.08,s47401
北見枝幸,44.94,142.585,-1.05,9.22,-1.07,71.17,0.34,0.17,s47402
羽幌,44.363333,141.7,-0.73,10.51,-2.79,67.32,0.19,-0.0,s47404
留萌,43.945,141.631667,-0.88,10.17,-3.83,69.88,0.15,-0.02,s47406
旭川,43.756667,142.371667,-1.21,8.16,-1.9,76.39,0.15,0.01,s47407
雄武,44.58,142.963333,-0.81,9.0,-2.73,71.82,0.3,0.18,s47405
紋別,44.345,143.355,-0.87,9.62,-2.5,67.71,0.34,0.22,s47435
網走,44.016667,144.278333,-0.81,10.12,-5.74,63.54,0.29,0.16,s47409
岩見沢,43.211667,141.785,-1.32,9.47,-2.96,73.58,0.16,0.02,s47413
小樽,43.181667,141.015,-1.43,10.31,0.08,68.2,0.19,0.02,s47411
倶知安,42.9,140.756667,-1.39,8.24,-1.71,77.17,0.2,0.03,s47433
寿都,42.795,140.223333,-1.57,10.61,-5.76,65.77,0.2,0.04,s47421
札幌,43.06,141.328333,-1.36,10.8,-5.53,60.66,0.13,-0.01,s47412
浦河,42.161667,142.776667,-1.29,11.01,-2.37,72.15,0.13,-0.03,s47426
帯広,42.921667,143.211667,-0.93,9.43,-9.38,63.87,0.07,-0.05,s47417
広尾,42.293333,143.316667,-0.68,10.64,-8.33,64.68,0.18,-0.08,s47440
根室,43.33,145.585,-0.45,11.24,-6.06,69.4,0.24,0.06,s47420
江差,41.866667,140.123333,-1.33,12.37,-5.35,63.02,0.14,0.0,s47428
苫小牧,42.623333,141.546667,-1.66,9.83,-2.1,72.39,0.12,-0.04,s47424
室蘭,42.311667,140.975,-1.58,11.29,-3.34,71.15,0.11,-0.03,s47423
釧路,42.985,144.376667,-0.59,10.48,-8.74,67.07,0.11,-0.05,s47418
函館,41.816667,140.753333,-1.59,11.03,-2.48,69.54,0.12,-0.02,s47430
むつ,41.283333,141.21,-1.36,11.4,-5.23,71.42,0.1,-0.06,s47576
青森,40.821667,140.768333,-1.39,12.19,-3.25,69.35,0.1,-0.06,s47575
深浦,40.645,139.931667,-1.19,12.49,-2.7,71.15,0.15,-0.06,s47574
八戸,40.526667,141.521667,-1.32,12.18,-5.46,69.38,0.03,-0.13,s47581
秋田,39.716667,140.098333,-1.2,13.39,-4.46,68.12,0.21,-0.02,s47582
盛岡,39.698333,141.165,-0.95,11.77,-6.38,71.49,0.14,-0.02,s47584
宮古,39.646667,141.965,-0.69,12.89,-9.28,69.43,0.03,-0.22,s47585
大船渡,39.063333,141.713333,-0.49,13.94,-10.21,64.85,0.08,-0.15,s47512
輪島,37.39,136.895,-1.17,15.18,-2.01,73.3,0.2,-0.04,s47600
金沢,36.588333,136.633333,-0.51,17.15,-4.57,64.87,0.1,-0.14,s47605
酒田,38.908333,139.843333,-1.23,14.45,-5.33,65.99,0.24,-0.01,s47587
新庄,38.756667,140.311667,-1.2,12.05,-3.9,79.66,0.18,-0.04,s47520
山形,38.255,140.345,-0.44,13.71,-10.11,66.3,0.04,-0.11,s47588
石巻,38.426667,141.298333,-0.68,14.3,-6.35,69.47,0.04,-0.17,s47592
仙台,38.261667,140.896667,-0.27,15.48,-12.33,59.52,0.01,-0.22,s47590
伏木,36.791667,137.055,-0.85,16.29,-1.3,73.6,0.11,-0.12,s47606
富山,36.708333,137.201667,-0.78,16.32,-10.29,66.82,0.12,-0.12,s47607
相川,38.028333,138.24,-1.27,15.93,-4.25,64.32,0.15,-0.03,s47602
新潟,37.893333,139.018333,-1.06,15.77,-3.53,67.47,0.14,-0.08,s47604
高田,37.106667,138.246667,-0.87,15.56,-4.33,74.0,0.19,-0.11,s47612
福島,37.758333,140.47,0.14,15.82,-8.9,64.58,0.01,-0.19,s47595
若松,37.488333,139.91,-0.66,13.48,-2.8,77.43,0.05,-0.11,s47570
白河,37.131667,140.215,0.03,14.1,-6.62,72.15,0.03,-0.23,s47597
小名浜,36.946667,140.903333,0.03,16.96,-8.28,66.2,0.05,-0.24,s47598
萩,34.41,131.405,-1.21,16.73,-0.88,75.44,0.08,-0.08,s47754
山口,34.161667,131.461667,-1.22,16.83,-0.38,72.16,0.13,0.0,s47784
下関,33.948333,130.925,-0.83,19.07,-5.0,62.26,0.09,-0.04,s47762
西郷,36.203333,133.333333,-0.44,16.59,-4.02,71.92,0.12,-0.06,s47740
松江,35.456667,133.065,-0.74,16.8,-2.34,73.84,0.08,-0.11,s47741
浜田,34.896667,132.07,-0.69,17.16,-4.83,70.19,0.06,-0.1,s47755
境,35.543333,133.235,-0.81,17.16,-1.76,72.13,0.07,-0.13,s47742
鳥取,35.486667,134.238333,-0.84,16.51,-5.95,69.97,0.05,-0.16,s47746
米子,35.433333,133.338333,-1.03,16.61,-5.68,68.02,0.06,-0.13,s47744
豊岡,35.535,134.821667,-1.21,15.6,-1.24,79.93,0.07,-0.18,s47747
姫路,34.838333,134.67,-0.86,17.23,-4.24,68.57,0.06,-0.1,s47769
神戸,34.696667,135.211667,-0.51,19.42,-7.57,56.62,0.05,-0.11,s47770
洲本,34.31,134.848333,-0.67,17.71,-8.0,68.07,0.04,-0.23,s47776
舞鶴,35.45,135.316667,-0.95,16.26,-2.26,76.85,0.06,-0.21,s47750
京都,35.013333,135.731667,-0.45,18.11,-6.03,60.99,0.05,-0.14,s47759
福井,36.055,136.221667,-0.93,16.33,-1.65,74.36,0.14,-0.08,s47616
敦賀,35.653333,136.061667,-0.82,17.44,-6.09,65.71,0.15,-0.07,s47631
高山,36.155,137.253333,-0.84,12.8,-3.55,77.06,0.13,-0.1,s47617
岐阜,35.4,136.761667,-0.64,18.18,-5.12,60.97,0.11,-0.13,s47632
長野,36.661667,138.191667,-0.62,13.9,-2.32,72.81,0.04,-0.1,s47610
軽井沢,36.341667,138.546667,-0.44,10.18,-5.28,82.58,0.03,-0.19,s47622
松本,36.246667,137.97,-0.31,13.69,-6.9,67.31,0.04,-0.15,s47618
諏訪,36.045,138.108333,-0.48,13.07,-8.05,69.81,0.05,-0.14,s47620
飯田,35.523333,137.821667,-0.69,14.43,-6.93,69.94,0.12,-0.12,s47637
前橋,36.405,139.06,0.02,17.18,-8.2,59.13,0.02,-0.19,s47624
宇都宮,36.548333,139.868333,-0.02,16.75,-9.17,64.47,0.07,-0.2,s47615
水戸,36.38,140.466667,0.13,16.81,-6.16,71.61,0.04,-0.23,s47629
福山,34.446667,133.246667,-1.49,16.72,-0.32,72.3,0.05,-0.08,s47767
広島,34.398333,132.461667,-0.92,18.03,-7.16,58.33,0.13,-0.04,s47765
呉,34.24,132.55,-1.05,18.34,-1.16,64.54,0.11,-0.03,s47766
津山,35.063333,134.008333,-1.52,14.69,-1.97,76.61,0.06,-0.08,s47756
岡山,34.685,133.925,-1.6,17.1,-1.98,66.97,0.05,-0.09,s47768
彦根,35.275,136.243333,-0.66,17.21,-5.43,68.42,0.06,-0.14,s47761
甲府,35.666667,138.553333,-0.04,17.24,-8.9,61.2,0.03,-0.2,s47638
河口湖,35.5,138.76,-0.27,12.85,-5.55,76.24,0.04,-0.31,s47640
熊谷,36.15,139.38,0.07,17.77,-9.82,60.4,0.03,-0.22,s47626
秩父,35.99,139.073333,-0.09,15.48,-6.78,76.15,0.03,-0.27,s47641
厳原,34.196667,129.291667,-0.53,18.33,-3.74,67.17,0.23,0.05,s47800
平戸,33.36,129.55,-0.8,18.55,0.16,72.98,0.21,0.02,s47805
佐世保,33.158333,129.726667,-0.88,19.25,-0.6,64.02,0.14,-0.01,s47812
長崎,32.733333,129.866667,-0.86,19.32,-2.76,64.83,0.08,-0.08,s47817
雲仙岳,32.736667,130.261667,-1.28,14.27,-5.2,74.13,0.16,-0.05,s47818
福江,32.693333,128.826667,-1.14,18.62,1.16,72.24,0.26,0.05,s47843
佐賀,33.265,130.305,-0.97,18.42,-1.74,66.29,0.13,-0.01,s47813
飯塚,33.651667,130.693333,-1.17,16.83,-1.02,75.89,0.12,-0.02,s47809
福岡,33.581667,130.375,-0.95,18.88,-0.71,66.65,0.11,-0.04,s47807
大阪,34.681667,135.518333,-0.51,19.02,-5.56,59.78,0.05,-0.14,s47772
奈良,34.673333,135.836667,-0.83,16.51,-3.64,73.48,0.07,-0.14,s47780
四日市,34.94,136.58,-0.55,17.05,-6.75,69.38,0.06,-0.21,s47684
上野,34.761667,136.141667,-0.86,16.02,-6.31,69.83,0.04,-0.18,s47649
津,34.733333,136.518333,-0.44,18.51,-5.93,61.87,0.03,-0.25,s47651
尾鷲,34.068333,136.193333,-0.39,18.49,-9.53,66.68,0.08,-0.68,s47663
名古屋,35.166667,136.965,-0.45,18.37,-6.2,60.98,0.09,-0.16,s47636
伊良湖,34.628333,137.093333,-0.37,18.92,-1.78,70.64,0.08,-0.26,s47653
三島,35.113333,138.925,-0.21,18.44,-2.08,71.24,0.06,-0.25,s47657
網代,35.045,139.091667,-0.14,18.6,-3.09,70.33,0.04,-0.31,s47668
静岡,34.975,138.403333,-0.31,19.25,-6.86,64.43,0.15,-0.23,s47656
浜松,34.753333,137.711667,-0.23,19.27,-8.92,62.92,0.16,-0.14,s47654
御前崎,34.603333,138.213333,-0.6,19.38,-6.83,67.05,0.09,-0.28,s47655
石廊崎,34.603333,138.841667,-0.41,19.29,-2.29,70.76,0.09,-0.19,s47666
横浜,35.438333,139.651667,0.31,18.95,-4.08,66.73,0.07,-0.28,s47670
東京,35.691667,139.75,-0.38,18.42,-2.46,65.55,0.08,-0.28,s47662
大島,34.748333,139.361667,-0.2,18.74,-4.18,75.14,0.2,-0.4,s47675
三宅島,34.123333,139.52,-0.8,20.06,-4.39,74.49,0.11,-0.47,s47677
八丈島,33.121667,139.778333,-1.27,19.97,-5.03,76.1,0.33,-0.32,s47678
父島,27.091667,142.19,-0.79,25.77,-0.6,81.08,0.15,-0.05,s47971
南鳥島,24.288333,153.983333,-0.17,27.8,5.93,84.3,0.22,0.1,s47991
銚子,35.738333,140.856667,0.07,19.31,-5.4,72.17,0.12,-0.27,s47648
千葉,35.601667,140.103333,0.26,18.96,-7.99,64.19,0.08,-0.25,s47682
勝浦,35.15,140.311667,0.05,19.0,-4.42,73.38,0.16,-0.27,s47674
館山,34.986667,139.865,-0.22,18.5,-3.21,74.65,0.11,-0.26,s47672
熊本,32.813333,130.706667,-1.12,18.72,-3.61,64.62,0.09,-0.05,s47819
人吉,32.216667,130.755,-1.61,16.62,-1.46,77.8,0.07,-0.09,s47824
牛深,32.196667,130.026667,-0.7,20.51,-3.12,63.91,0.08,-0.06,s47838
日田,33.321667,130.928333,-1.17,16.71,-0.77,74.03,0.13,-0.01,s47814
大分,33.235,131.618333,-1.26,18.18,-4.14,65.54,0.04,-0.18,s47815
松山,33.843333,132.776667,-1.01,18.32,-5.01,62.85,0.07,-0.09,s47887
宇和島,33.226667,132.551667,-1.33,18.15,-3.04,71.06,0.04,-0.15,s47892
高松,34.318333,134.053333,-0.89,18.37,-7.34,61.55,0.03,-0.14,s47891
多度津,34.275,133.751667,-0.85,18.37,-2.57,66.02,0.03,-0.12,s47890
和歌山,34.228333,135.163333,-0.38,18.98,-5.54,61.63,0.05,-0.2,s47777
潮岬,33.45,135.756667,-0.34,19.88,-8.72,64.47,0.1,-0.34,s47778
阿久根,32.026667,130.2,-0.96,19.29,-3.29,68.79,0.07,-0.06,s47823
鹿児島,31.555,130.546667,-1.04,20.8,-2.54,64.78,0.07,-0.09,s47827
枕崎,31.271667,130.291667,-1.09,19.83,-0.56,71.96,0.05,-0.1,s47831
種子島,30.72,130.981667,-0.77,21.78,-2.82,70.66,0.05,-0.25,s47837
名瀬,28.378333,129.495,-0.66,23.45,-0.41,74.06,0.26,-0.1,s47909
屋久島,30.385,130.658333,-0.55,21.89,-6.01,68.33,0.15,-0.3,s47836
沖永良部,27.431667,128.705,-0.13,25.11,-3.99,68.96,0.18,-0.06,s47942
延岡,32.581667,131.656667,-1.13,18.26,-3.37,71.05,0.03,-0.28,s47822
宮崎,31.938333,131.413333,-1.22,18.97,-2.53,73.08,0.03,-0.27,s47830
都城,31.73,131.081667,-1.21,18.15,-2.73,72.02,0.06,-0.15,s47829
油津,31.578333,131.406667,-1.11,19.96,-2.11,71.19,0.04,-0.29,s47835
高知,33.566667,133.548333,-1.0,19.14,-9.3,59.93,0.07,-0.24,s47893
室戸岬,33.251667,134.176667,-0.39,19.44,-6.13,67.7,0.08,-0.29,s47899
宿毛,32.92,132.695,-0.92,18.94,-3.6,69.46,0.04,-0.21,s47897
清水,32.721667,133.01,-0.6,20.89,-7.76,61.96,0.03,-0.33,s47898
徳島,34.066667,134.573333,-0.58,18.87,-8.82,60.03,0.01,-0.3,s47895
名護,26.593333,127.965,-0.34,24.81,-0.73,73.28,0.11,-0.15,s47940
那覇,26.206667,127.686667,-0.17,25.49,-2.81,68.35,0.09,-0.15,s47936
石垣島,24.336667,124.163333,0.13,26.2,2.05,75.18,0.06,-0.22,s47918
宮古島,24.793333,125.278333,0.05,25.7,0.26,75.14,0.12,-0.09,s47927
久米島,26.336667,126.803333,-0.1,25.36,-1.74,72.04,0.12,-0.09,s47929
西表島,24.426667,123.765,0.19,25.73,1.54,78.46,0.06,-0.19,s47917
与那国島,24.466667,123.01,0.17,25.74,2.64,78.33,0.06,-0.19,s47912
