站名,緯度,經度,平均溫距平,本年度平均溫,平均溼度距平,本年度日均相對溼度,本年度日均降水量,日均降水量距平,站號
稚内,45.415,141.678333,-0.12,-2.34,0.69,70.12,0.12,-0.02,s47401
北見枝幸,44.94,142.585,0.06,-3.14,2.02,78.79,0.11,-0.02,s47402
羽幌,44.363333,141.7,0.24,-1.56,3.46,76.67,0.16,-0.05,s47404
留萌,43.945,141.631667,0.04,-1.63,2.04,78.53,0.1,-0.06,s47406
旭川,43.756667,142.371667,0.49,-3.83,1.49,83.94,0.11,-0.03,s47407
雄武,44.58,142.963333,0.5,-2.94,2.43,78.9,0.04,-0.04,s47405
紋別,44.345,143.355,0.34,-2.37,-0.98,70.1,0.03,-0.06,s47435
網走,44.016667,144.278333,0.32,-2.13,-5.58,62.75,0.02,-0.07,s47409
岩見沢,43.211667,141.785,0.59,-2.16,2.83,83.95,0.15,-0.06,s47413
小樽,43.181667,141.015,0.12,-1.17,5.0,76.77,0.1,-0.1,s47411
倶知安,42.9,140.756667,0.37,-2.92,2.1,84.59,0.23,-0.07,s47433
寿都,42.795,140.223333,0.1,-0.33,3.55,72.83,0.17,-0.03,s47421
札幌,43.06,141.328333,0.32,-0.78,3.21,71.23,0.08,-0.07,s47412
浦河,42.161667,142.776667,0.6,0.65,3.13,68.4,0.06,-0.02,s47426
帯広,42.921667,143.211667,0.78,-3.16,1.12,68.64,0.03,-0.04,s47417
広尾,42.293333,143.316667,0.45,-0.85,5.94,68.25,0.11,-0.02,s47440
根室,43.33,145.585,0.16,-0.49,1.82,70.32,0.05,-0.03,s47420
江差,41.866667,140.123333,0.35,1.86,0.41,67.6,0.15,-0.0,s47428
苫小牧,42.623333,141.546667,0.47,-0.91,3.3,73.37,0.08,-0.0,s47424
室蘭,42.311667,140.975,0.39,0.81,3.47,74.12,0.09,-0.0,s47423
釧路,42.985,144.376667,-0.0,-1.92,4.64,70.89,0.05,-0.03,s47418
函館,41.816667,140.753333,0.56,0.36,3.31,76.65,0.15,0.02,s47430
むつ,41.283333,141.21,0.43,1.51,2.21,76.46,0.14,-0.02,s47576
青森,40.821667,140.768333,0.86,2.05,-1.35,77.03,0.2,-0.02,s47575
深浦,40.645,139.931667,0.81,3.08,4.79,75.56,0.28,0.09,s47574
八戸,40.526667,141.521667,0.66,2.2,0.2,72.18,0.09,0.02,s47581
秋田,39.716667,140.098333,0.87,3.56,-0.53,73.67,0.29,0.07,s47582
盛岡,39.698333,141.165,0.64,1.33,2.59,78.29,0.09,-0.01,s47584
宮古,39.646667,141.965,0.86,3.6,1.86,65.35,0.05,-0.06,s47585
大船渡,39.063333,141.713333,0.84,4.18,2.06,68.01,0.04,-0.06,s47512
輪島,37.39,136.895,1.48,7.24,-2.22,73.15,0.26,-0.14,s47600
金沢,36.588333,136.633333,1.71,8.33,-5.5,66.27,0.23,-0.2,s47605
酒田,38.908333,139.843333,1.21,5.58,-5.91,65.88,0.22,-0.08,s47587
新庄,38.756667,140.311667,0.44,1.87,-0.8,86.59,0.29,-0.08,s47520
山形,38.255,140.345,1.05,3.33,-1.98,79.81,0.06,-0.08,s47588
石巻,38.426667,141.298333,0.9,4.16,2.0,76.01,0.04,-0.03,s47592
仙台,38.261667,140.896667,1.04,5.39,0.62,68.62,0.04,-0.04,s47590
伏木,36.791667,137.055,1.78,7.28,-1.84,78.89,0.19,-0.24,s47606
富山,36.708333,137.201667,1.74,7.4,-1.47,80.01,0.27,-0.13,s47607
相川,38.028333,138.24,1.56,8.25,-1.09,68.36,0.15,-0.1,s47602
新潟,37.893333,139.018333,1.21,6.63,0.12,73.9,0.13,-0.19,s47604
高田,37.106667,138.246667,1.2,6.32,1.91,81.22,0.57,-0.09,s47612
福島,37.758333,140.47,1.15,5.38,0.98,71.71,0.03,-0.05,s47595
若松,37.488333,139.91,0.72,2.88,0.31,84.47,0.08,-0.08,s47570
白河,37.131667,140.215,0.98,3.97,5.9,76.31,0.03,-0.04,s47597
小名浜,36.946667,140.903333,1.0,7.46,6.76,68.94,0.04,-0.03,s47598
萩,34.41,131.405,1.35,9.29,6.52,76.63,0.1,-0.03,s47754
山口,34.161667,131.461667,1.4,7.87,4.88,80.32,0.11,-0.0,s47784
下関,33.948333,130.925,1.35,10.75,6.3,68.8,0.1,-0.0,s47762
西郷,36.203333,133.333333,1.63,8.53,4.81,78.42,0.12,-0.11,s47740
松江,35.456667,133.065,1.25,8.06,2.47,78.82,0.19,-0.04,s47741
浜田,34.896667,132.07,1.64,10.02,-0.01,66.68,0.14,-0.02,s47755
境,35.543333,133.235,1.34,8.56,3.65,77.59,0.21,-0.06,s47742
鳥取,35.486667,134.238333,1.53,8.16,3.93,79.84,0.23,-0.08,s47746
米子,35.433333,133.338333,1.58,8.53,4.9,78.72,0.14,-0.06,s47744
豊岡,35.535,134.821667,1.36,7.15,4.4,88.18,0.18,-0.15,s47747
姫路,34.838333,134.67,1.12,7.71,5.37,77.74,0.07,0.0,s47769
神戸,34.696667,135.211667,1.21,9.88,3.96,65.89,0.08,0.02,s47770
洲本,34.31,134.848333,1.1,8.92,5.31,76.11,0.11,-0.0,s47776
舞鶴,35.45,135.316667,1.17,7.25,3.61,85.14,0.11,-0.13,s47750
京都,35.013333,135.731667,1.27,8.33,5.1,72.95,0.06,-0.02,s47759
福井,36.055,136.221667,1.71,7.53,-0.9,80.79,0.28,-0.16,s47616
敦賀,35.653333,136.061667,1.57,8.88,-0.41,72.53,0.31,-0.15,s47631
高山,36.155,137.253333,1.41,3.01,-0.41,84.08,0.11,-0.04,s47617
岐阜,35.4,136.761667,1.68,8.62,-2.07,65.63,0.11,-0.0,s47632
長野,36.661667,138.191667,1.03,3.29,2.29,81.22,0.07,-0.01,s47610
軽井沢,36.341667,138.546667,1.4,0.79,3.99,82.87,0.04,-0.0,s47622
松本,36.246667,137.97,1.65,4.15,0.36,68.49,0.05,-0.0,s47618
諏訪,36.045,138.108333,1.4,3.26,3.55,75.85,0.07,0.01,s47620
飯田,35.523333,137.821667,1.66,5.0,3.3,73.94,0.11,0.02,s47637
前橋,36.405,139.06,0.89,6.97,6.92,63.56,0.02,-0.01,s47624
宇都宮,36.548333,139.868333,0.93,6.05,7.34,73.1,0.03,-0.03,s47615
水戸,36.38,140.466667,1.35,6.93,3.84,71.52,0.07,-0.0,s47629
福山,34.446667,133.246667,1.07,7.72,5.3,77.49,0.08,0.01,s47767
広島,34.398333,132.461667,1.33,8.65,-3.06,65.0,0.11,0.03,s47765
呉,34.24,132.55,1.03,9.29,4.96,69.59,0.1,0.02,s47766
津山,35.063333,134.008333,0.81,5.24,5.6,87.08,0.07,-0.02,s47756
岡山,34.685,133.925,0.53,7.66,8.08,76.28,0.06,-0.0,s47768
彦根,35.275,136.243333,1.21,7.7,3.3,78.73,0.1,-0.05,s47761
甲府,35.666667,138.553333,1.49,6.89,9.98,68.88,0.06,0.0,s47638
河口湖,35.5,138.76,1.87,4.19,7.33,73.65,0.09,0.01,s47640
熊谷,36.15,139.38,0.84,7.35,7.26,65.14,0.03,-0.02,s47626
秩父,35.99,139.073333,1.08,5.0,7.01,78.84,0.03,-0.02,s47641
厳原,34.196667,129.291667,1.43,9.28,7.35,70.2,0.15,0.06,s47800
平戸,33.36,129.55,1.39,10.53,4.21,69.5,0.19,0.06,s47805
佐世保,33.158333,129.726667,1.23,10.25,6.58,70.42,0.25,0.13,s47812
長崎,32.733333,129.866667,1.34,10.58,5.43,72.24,0.16,0.05,s47817
雲仙岳,32.736667,130.261667,1.69,6.22,4.36,83.44,0.23,0.08,s47818
福江,32.693333,128.826667,1.31,10.99,5.19,72.18,0.23,0.07,s47843
佐賀,33.265,130.305,1.54,9.35,3.28,73.22,0.17,0.08,s47813
飯塚,33.651667,130.693333,1.26,8.37,5.16,79.26,0.12,0.01,s47809
福岡,33.581667,130.375,1.38,10.34,5.16,68.24,0.11,0.01,s47807
大阪,34.681667,135.518333,0.95,9.48,4.96,67.2,0.08,-0.0,s47772
奈良,34.673333,135.836667,1.31,7.66,4.03,77.37,0.09,0.01,s47780
四日市,34.94,136.58,1.39,7.95,4.9,75.81,0.09,0.0,s47684
上野,34.761667,136.141667,1.17,6.83,2.69,75.06,0.09,0.02,s47649
津,34.733333,136.518333,1.19,9.22,-0.96,60.9,0.09,0.02,s47651
尾鷲,34.068333,136.193333,1.75,10.44,8.2,72.04,0.13,-0.05,s47663
名古屋,35.166667,136.965,1.63,8.76,3.3,68.71,0.09,0.01,s47636
伊良湖,34.628333,137.093333,1.43,9.96,5.43,70.81,0.13,0.04,s47653
三島,35.113333,138.925,1.91,10.12,6.62,74.86,0.14,0.04,s47657
網代,35.045,139.091667,1.32,10.75,7.92,70.03,0.11,0.01,s47668
静岡,34.975,138.403333,1.99,11.23,6.88,66.8,0.15,0.03,s47656
浜松,34.753333,137.711667,2.02,10.65,2.07,63.62,0.1,0.01,s47654
御前崎,34.603333,138.213333,2.23,11.61,5.72,68.15,0.15,0.04,s47655
石廊崎,34.603333,138.841667,1.61,12.27,6.64,69.6,0.1,-0.0,s47666
横浜,35.438333,139.651667,0.82,9.42,7.3,63.58,0.18,0.08,s47670
東京,35.691667,139.75,0.07,8.47,12.71,65.66,0.1,0.01,s47662
大島,34.748333,139.361667,1.7,11.72,6.99,75.04,0.2,0.03,s47675
三宅島,34.123333,139.52,1.92,14.34,8.41,75.96,0.35,0.09,s47677
八丈島,33.121667,139.778333,1.71,14.39,6.66,76.56,0.34,0.07,s47678
父島,27.091667,142.19,1.98,22.71,5.22,75.7,0.26,0.11,s47971
南鳥島,24.288333,153.983333,0.57,25.3,3.34,78.0,0.2,0.08,s47991
銚子,35.738333,140.856667,1.43,10.69,7.29,73.3,0.13,-0.01,s47648
千葉,35.601667,140.103333,0.86,9.42,3.0,59.72,0.13,0.04,s47682
勝浦,35.15,140.311667,1.35,10.63,7.86,71.87,0.19,0.05,s47674
館山,34.986667,139.865,1.47,10.4,2.86,69.76,0.15,0.01,s47672
熊本,32.813333,130.706667,1.42,9.3,4.19,75.07,0.12,0.03,s47819
人吉,32.216667,130.755,1.14,7.46,6.64,86.61,0.14,0.02,s47824
牛深,32.196667,130.026667,1.52,12.14,2.44,68.1,0.15,0.0,s47838
日田,33.321667,130.928333,1.45,7.43,5.14,83.42,0.13,0.03,s47814
大分,33.235,131.618333,1.19,9.88,8.23,71.8,0.13,0.05,s47815
松山,33.843333,132.776667,1.38,9.75,5.15,69.9,0.12,0.02,s47887
宇和島,33.226667,132.551667,1.39,10.41,4.11,73.04,0.11,0.01,s47892
高松,34.318333,134.053333,0.99,9.06,8.4,73.4,0.06,-0.01,s47891
多度津,34.275,133.751667,0.68,9.07,9.08,73.4,0.08,0.01,s47890
和歌山,34.228333,135.163333,1.08,9.63,6.34,69.24,0.13,0.03,s47777
潮岬,33.45,135.756667,1.64,12.06,7.14,68.09,0.21,0.07,s47778
阿久根,32.026667,130.2,1.39,11.33,0.68,68.99,0.17,0.03,s47823
鹿児島,31.555,130.546667,1.35,12.15,5.29,72.02,0.19,0.05,s47827
枕崎,31.271667,130.291667,1.18,12.01,6.68,76.09,0.17,0.01,s47831
種子島,30.72,130.981667,1.19,14.95,7.98,74.71,0.22,0.08,s47837
名瀬,28.378333,129.495,0.95,17.64,6.25,75.43,0.28,0.04,s47909
屋久島,30.385,130.658333,1.31,15.15,4.28,72.67,0.64,0.23,s47836
沖永良部,27.431667,128.705,0.94,19.27,9.56,75.56,0.12,-0.0,s47942
延岡,32.581667,131.656667,1.16,9.71,9.35,76.48,0.12,0.02,s47822
宮崎,31.938333,131.413333,1.49,11.07,7.77,76.87,0.1,-0.01,s47830
都城,31.73,131.081667,1.58,9.63,7.79,80.55,0.14,0.03,s47829
油津,31.578333,131.406667,1.46,12.27,9.31,75.46,0.14,0.0,s47835
高知,33.566667,133.548333,1.55,10.3,4.55,69.95,0.16,0.03,s47893
室戸岬,33.251667,134.176667,1.52,11.49,6.31,70.33,0.16,0.03,s47899
宿毛,32.92,132.695,1.33,10.71,7.35,73.82,0.14,0.02,s47897
清水,32.721667,133.01,1.6,12.7,7.04,68.16,0.12,-0.02,s47898
徳島,34.066667,134.573333,1.28,9.83,6.19,69.4,0.08,-0.01,s47895
名護,26.593333,127.965,1.05,19.3,8.21,77.97,0.23,0.07,s47940
那覇,26.206667,127.686667,0.92,19.95,7.31,73.33,0.14,-0.03,s47936
石垣島,24.336667,124.163333,0.72,21.14,7.32,78.88,0.44,0.23,s47918
宮古島,24.793333,125.278333,0.87,20.84,7.26,78.08,0.34,0.13,s47927
久米島,26.336667,126.803333,0.98,19.9,6.54,74.56,0.19,0.0,s47929
西表島,24.426667,123.765,0.76,20.76,6.72,82.07,0.46,0.22,s47917
与那国島,24.466667,123.01,0.63,20.64,6.49,81.01,0.24,-0.03,s47912
