站名,緯度,經度,平均溫距平,本年度平均溫,平均溼度距平,本年度日均相對溼度,本年度日均降水量,日均降水量距平,站號
稚内,45.415,141.678333,0.82,12.14,1.21,68.34,0.23,0.06,s47401
北見枝幸,44.94,142.585,0.51,10.77,5.75,77.98,0.17,0.0,s47402
羽幌,44.363333,141.7,0.62,11.86,5.4,75.51,0.25,0.05,s47404
留萌,43.945,141.631667,0.55,11.6,3.62,77.33,0.27,0.1,s47406
旭川,43.756667,142.371667,0.88,10.25,3.85,82.14,0.12,-0.03,s47407
雄武,44.58,142.963333,0.7,10.51,4.52,79.07,0.09,-0.03,s47405
紋別,44.345,143.355,0.9,11.39,4.71,74.92,0.09,-0.03,s47435
網走,44.016667,144.278333,0.98,11.91,0.38,69.65,0.1,-0.03,s47409
岩見沢,43.211667,141.785,0.79,11.58,2.03,78.57,0.12,-0.03,s47413
小樽,43.181667,141.015,0.76,12.51,5.15,73.27,0.15,-0.01,s47411
倶知安,42.9,140.756667,0.68,10.31,4.26,83.14,0.19,0.03,s47433
寿都,42.795,140.223333,0.39,12.57,3.19,74.72,0.19,0.03,s47421
札幌,43.06,141.328333,0.91,13.08,2.6,68.79,0.09,-0.05,s47412
浦河,42.161667,142.776667,0.7,13.0,-1.64,72.88,0.23,0.07,s47426
帯広,42.921667,143.211667,0.62,10.98,3.76,77.01,0.1,-0.02,s47417
広尾,42.293333,143.316667,0.62,11.94,2.67,75.68,0.24,-0.02,s47440
根室,43.33,145.585,1.1,12.79,1.1,76.56,0.14,-0.04,s47420
江差,41.866667,140.123333,0.4,14.1,-2.09,66.28,0.09,-0.05,s47428
苫小牧,42.623333,141.546667,0.86,12.35,1.54,76.03,0.09,-0.07,s47424
室蘭,42.311667,140.975,0.83,13.7,-0.52,73.98,0.09,-0.05,s47423
釧路,42.985,144.376667,1.12,12.19,2.8,78.61,0.19,0.04,s47418
函館,41.816667,140.753333,0.19,12.81,2.79,74.81,0.13,-0.01,s47430
むつ,41.283333,141.21,0.05,12.81,3.04,79.7,0.12,-0.05,s47576
青森,40.821667,140.768333,0.1,13.68,0.99,73.59,0.12,-0.04,s47575
深浦,40.645,139.931667,-0.09,13.59,1.87,75.71,0.19,-0.02,s47574
八戸,40.526667,141.521667,-0.04,13.47,2.11,76.95,0.07,-0.09,s47581
秋田,39.716667,140.098333,-0.1,14.49,2.09,74.67,0.2,-0.03,s47582
盛岡,39.698333,141.165,0.03,12.75,3.14,81.01,0.09,-0.06,s47584
宮古,39.646667,141.965,-0.13,13.45,3.03,81.74,0.18,-0.07,s47585
大船渡,39.063333,141.713333,-0.17,14.26,3.28,78.34,0.13,-0.1,s47512
輪島,37.39,136.895,-0.08,16.27,-0.94,74.37,0.13,-0.11,s47600
金沢,36.588333,136.633333,-0.18,17.48,-2.85,66.59,0.16,-0.09,s47605
酒田,38.908333,139.843333,0.01,15.69,-3.72,67.6,0.15,-0.1,s47587
新庄,38.756667,140.311667,-0.04,13.2,2.12,85.68,0.15,-0.07,s47520
山形,38.255,140.345,-0.18,13.97,1.4,77.81,0.05,-0.1,s47588
石巻,38.426667,141.298333,-0.31,14.67,4.08,79.9,0.06,-0.14,s47592
仙台,38.261667,140.896667,-0.15,15.6,1.74,73.59,0.08,-0.15,s47590
伏木,36.791667,137.055,-0.27,16.87,0.18,75.09,0.1,-0.12,s47606
富山,36.708333,137.201667,-0.42,16.68,0.45,77.57,0.12,-0.12,s47607
相川,38.028333,138.24,0.22,17.42,-1.31,67.26,0.08,-0.1,s47602
新潟,37.893333,139.018333,-0.42,16.41,2.22,73.21,0.15,-0.08,s47604
高田,37.106667,138.246667,-0.52,15.91,2.0,80.33,0.19,-0.1,s47612
福島,37.758333,140.47,-0.6,15.09,3.37,76.85,0.1,-0.11,s47595
若松,37.488333,139.91,-0.26,13.88,1.92,82.15,0.1,-0.06,s47570
白河,37.131667,140.215,-0.73,13.34,4.62,83.4,0.14,-0.12,s47597
小名浜,36.946667,140.903333,-0.39,16.54,2.08,76.56,0.13,-0.16,s47598
萩,34.41,131.405,-0.65,17.29,2.47,78.79,0.1,-0.07,s47754
山口,34.161667,131.461667,-0.29,17.77,-0.23,72.31,0.12,-0.02,s47784
下関,33.948333,130.925,-0.4,19.5,-0.4,66.85,0.08,-0.05,s47762
西郷,36.203333,133.333333,-0.46,16.57,2.7,78.65,0.08,-0.1,s47740
松江,35.456667,133.065,-0.55,17.0,1.08,77.26,0.12,-0.07,s47741
浜田,34.896667,132.07,-0.65,17.2,-0.52,74.5,0.11,-0.05,s47755
境,35.543333,133.235,-0.48,17.49,0.85,74.73,0.14,-0.06,s47742
鳥取,35.486667,134.238333,-0.58,16.77,3.0,78.92,0.15,-0.07,s47746
米子,35.433333,133.338333,-0.61,17.04,0.64,74.34,0.14,-0.04,s47744
豊岡,35.535,134.821667,-0.72,16.08,3.41,84.58,0.13,-0.12,s47747
姫路,34.838333,134.67,-0.68,17.41,1.28,74.09,0.12,-0.03,s47769
神戸,34.696667,135.211667,-0.85,19.08,0.48,64.67,0.21,0.05,s47770
洲本,34.31,134.848333,-0.81,17.58,1.29,77.36,0.39,0.12,s47776
舞鶴,35.45,135.316667,-0.58,16.63,2.24,81.35,0.09,-0.18,s47750
京都,35.013333,135.731667,-0.64,17.92,1.64,68.67,0.23,0.04,s47759
福井,36.055,136.221667,-0.59,16.67,2.08,78.09,0.14,-0.08,s47616
敦賀,35.653333,136.061667,-0.64,17.62,1.55,73.35,0.21,-0.01,s47631
高山,36.155,137.253333,-0.97,12.67,1.35,81.96,0.16,-0.06,s47617
岐阜,35.4,136.761667,-0.84,17.99,-0.99,65.1,0.28,0.04,s47632
長野,36.661667,138.191667,-0.99,13.53,5.21,80.34,0.11,-0.04,s47610
軽井沢,36.341667,138.546667,-1.01,9.61,3.75,91.61,0.24,0.03,s47622
松本,36.246667,137.97,-1.17,12.83,3.59,77.79,0.22,0.03,s47618
諏訪,36.045,138.108333,-0.98,12.58,1.64,79.5,0.28,0.09,s47620
飯田,35.523333,137.821667,-0.97,14.15,1.97,78.84,0.35,0.11,s47637
前橋,36.405,139.06,-0.56,16.6,4.61,71.94,0.2,-0.01,s47624
宇都宮,36.548333,139.868333,-0.62,16.15,3.1,76.74,0.17,-0.09,s47615
水戸,36.38,140.466667,-0.39,16.28,-0.19,77.58,0.21,-0.06,s47629
福山,34.446667,133.246667,-0.54,17.67,0.8,73.41,0.14,0.01,s47767
広島,34.398333,132.461667,-0.2,18.75,-7.16,58.33,0.12,-0.04,s47765
呉,34.24,132.55,-0.39,19.0,-2.01,63.7,0.11,-0.03,s47766
津山,35.063333,134.008333,-0.65,15.55,2.49,81.08,0.14,-0.0,s47756
岡山,34.685,133.925,-1.0,17.71,3.52,72.48,0.14,0.0,s47768
彦根,35.275,136.243333,-0.57,17.3,1.23,75.09,0.26,0.06,s47761
甲府,35.666667,138.553333,-0.8,16.47,5.5,75.59,0.31,0.08,s47638
河口湖,35.5,138.76,-1.02,12.1,3.9,85.69,0.38,0.03,s47640
熊谷,36.15,139.38,-0.47,17.23,3.27,73.49,0.22,-0.03,s47626
秩父,35.99,139.073333,-0.56,15.01,3.06,85.99,0.31,0.01,s47641
厳原,34.196667,129.291667,-0.72,18.14,-2.14,68.77,0.07,-0.11,s47800
平戸,33.36,129.55,-0.4,18.95,-1.74,71.08,0.09,-0.09,s47805
佐世保,33.158333,129.726667,-0.3,19.84,-0.05,64.58,0.08,-0.08,s47812
長崎,32.733333,129.866667,-0.54,19.64,-0.03,67.56,0.08,-0.08,s47817
雲仙岳,32.736667,130.261667,-0.86,14.7,-1.36,77.97,0.14,-0.07,s47818
福江,32.693333,128.826667,-0.49,19.27,0.41,71.48,0.24,0.04,s47843
佐賀,33.265,130.305,-0.28,19.12,-1.29,66.74,0.11,-0.04,s47813
飯塚,33.651667,130.693333,-0.3,17.7,-1.16,75.74,0.08,-0.06,s47809
福岡,33.581667,130.375,-0.41,19.42,-0.09,67.26,0.09,-0.06,s47807
大阪,34.681667,135.518333,-0.87,18.66,1.65,66.99,0.28,0.08,s47772
奈良,34.673333,135.836667,-0.33,17.01,-1.83,75.29,0.37,0.17,s47780
四日市,34.94,136.58,-0.73,16.87,1.67,77.8,0.45,0.18,s47684
上野,34.761667,136.141667,-0.85,16.03,-0.87,75.27,0.44,0.22,s47649
津,34.733333,136.518333,-0.71,18.24,-4.76,63.04,0.46,0.18,s47651
尾鷲,34.068333,136.193333,-0.72,18.17,-0.97,75.25,0.87,0.12,s47663
名古屋,35.166667,136.965,-0.85,17.97,2.29,69.46,0.36,0.12,s47636
伊良湖,34.628333,137.093333,-0.72,18.58,1.88,74.3,0.37,0.03,s47653
三島,35.113333,138.925,-0.56,18.09,2.31,75.62,0.23,-0.09,s47657
網代,35.045,139.091667,-0.54,18.19,1.91,75.32,0.35,-0.0,s47668
静岡,34.975,138.403333,-0.52,19.05,1.1,72.39,0.27,-0.1,s47656
浜松,34.753333,137.711667,-0.56,18.94,-2.05,69.79,0.29,-0.02,s47654
御前崎,34.603333,138.213333,-0.32,19.66,-2.01,71.87,0.31,-0.06,s47655
石廊崎,34.603333,138.841667,-0.6,19.1,-0.56,72.49,0.25,-0.04,s47666
横浜,35.438333,139.651667,-0.71,17.92,1.33,72.14,0.3,-0.06,s47670
東京,35.691667,139.75,-1.33,17.47,6.84,74.85,0.28,-0.08,s47662
大島,34.748333,139.361667,-0.62,18.32,0.82,80.14,0.75,0.14,s47675
三宅島,34.123333,139.52,-0.52,20.34,2.36,81.24,0.83,0.25,s47677
八丈島,33.121667,139.778333,-0.63,20.62,3.0,84.12,1.29,0.65,s47678
父島,27.091667,142.19,0.46,27.02,3.8,85.49,0.32,0.12,s47971
南鳥島,24.288333,153.983333,0.29,28.25,5.72,84.09,0.23,0.1,s47991
銚子,35.738333,140.856667,-0.51,18.72,0.03,77.6,0.31,-0.08,s47648
千葉,35.601667,140.103333,-0.75,17.95,-1.59,70.59,0.27,-0.07,s47682
勝浦,35.15,140.311667,-0.84,18.11,1.62,79.42,0.38,-0.05,s47674
館山,34.986667,139.865,-0.71,18.01,-2.54,75.32,0.34,-0.03,s47672
熊本,32.813333,130.706667,-0.56,19.28,-2.06,66.17,0.11,-0.03,s47819
人吉,32.216667,130.755,-0.53,17.7,-0.2,79.05,0.1,-0.06,s47824
牛深,32.196667,130.026667,-0.56,20.66,-1.62,65.42,0.1,-0.04,s47838
日田,33.321667,130.928333,-0.46,17.41,1.28,76.08,0.11,-0.02,s47814
大分,33.235,131.618333,-0.28,19.15,-0.04,69.63,0.14,-0.07,s47815
松山,33.843333,132.776667,-0.57,18.76,3.23,71.09,0.16,-0.0,s47887
宇和島,33.226667,132.551667,-0.85,18.63,2.67,76.77,0.16,-0.04,s47892
高松,34.318333,134.053333,-0.65,18.61,2.28,71.17,0.16,-0.01,s47891
多度津,34.275,133.751667,-0.67,18.55,3.0,71.59,0.15,0.0,s47890
和歌山,34.228333,135.163333,-0.81,18.55,1.62,68.79,0.42,0.17,s47777
潮岬,33.45,135.756667,-0.63,19.59,-0.86,72.33,0.51,0.08,s47778
阿久根,32.026667,130.2,-0.8,19.45,-3.56,68.52,0.09,-0.05,s47823
鹿児島,31.555,130.546667,-0.46,21.37,-0.31,67.01,0.1,-0.05,s47827
枕崎,31.271667,130.291667,-0.66,20.26,2.55,75.07,0.08,-0.07,s47831
種子島,30.72,130.981667,-0.8,21.75,3.47,76.95,0.09,-0.21,s47837
名瀬,28.378333,129.495,-0.53,23.58,1.91,76.38,0.31,-0.04,s47909
屋久島,30.385,130.658333,-0.58,21.86,-0.08,74.26,0.23,-0.21,s47836
沖永良部,27.431667,128.705,-0.01,25.23,0.77,73.71,0.03,-0.21,s47942
延岡,32.581667,131.656667,-0.32,19.06,-1.26,73.17,0.26,-0.05,s47822
宮崎,31.938333,131.413333,-0.32,19.87,0.24,75.85,0.1,-0.2,s47830
都城,31.73,131.081667,-0.22,19.13,0.3,75.05,0.11,-0.09,s47829
油津,31.578333,131.406667,-0.59,20.49,1.88,75.18,0.11,-0.22,s47835
高知,33.566667,133.548333,-0.58,19.56,0.17,69.4,0.37,0.06,s47893
室戸岬,33.251667,134.176667,-0.72,19.11,1.52,75.34,0.27,-0.1,s47899
宿毛,32.92,132.695,-0.85,19.0,3.81,76.87,0.26,0.01,s47897
清水,32.721667,133.01,-0.73,20.75,1.45,71.17,0.28,-0.08,s47898
徳島,34.066667,134.573333,-0.73,18.72,2.35,71.21,0.52,0.21,s47895
名護,26.593333,127.965,-0.16,24.99,2.61,76.61,0.21,-0.05,s47940
那覇,26.206667,127.686667,0.14,25.79,0.11,71.27,0.27,0.04,s47936
石垣島,24.336667,124.163333,0.09,26.16,1.34,74.46,0.2,-0.08,s47918
宮古島,24.793333,125.278333,0.09,25.74,-0.09,74.79,0.15,-0.05,s47927
久米島,26.336667,126.803333,0.23,25.68,-1.58,72.2,0.2,-0.01,s47929
西表島,24.426667,123.765,0.46,25.99,1.34,78.26,0.13,-0.12,s47917
与那国島,24.466667,123.01,0.32,25.9,1.76,77.45,0.22,-0.04,s47912
