站名,緯度,經度,平均溫距平,本年度平均溫,平均溼度距平,本年度日均相對溼度,本年度日均降水量,日均降水量距平,站號
稚内,45.415,141.678333,-0.13,19.66,0.26,84.07,0.06,-0.11,s47401
北見枝幸,44.94,142.585,-0.62,18.74,4.19,87.47,0.16,-0.04,s47402
羽幌,44.363333,141.7,0.49,21.57,0.59,81.06,0.11,-0.07,s47404
留萌,43.945,141.631667,0.56,21.62,-3.87,79.45,0.08,-0.09,s47406
旭川,43.756667,142.371667,0.33,21.73,-5.77,72.61,0.08,-0.14,s47407
雄武,44.58,142.963333,-0.5,18.62,1.95,86.62,0.14,-0.05,s47405
紋別,44.345,143.355,-0.23,19.35,-0.79,81.96,0.17,-0.01,s47435
網走,44.016667,144.278333,-0.44,19.4,-1.46,79.03,0.19,0.03,s47409
岩見沢,43.211667,141.785,0.08,21.64,-2.46,78.5,0.13,-0.1,s47413
小樽,43.181667,141.015,0.48,22.31,1.27,79.37,0.13,-0.05,s47411
倶知安,42.9,140.756667,0.27,21.09,0.7,83.66,0.19,-0.02,s47433
寿都,42.795,140.223333,0.34,21.73,-2.05,81.84,0.19,0.02,s47421
札幌,43.06,141.328333,0.3,22.87,-1.46,72.73,0.15,-0.03,s47412
浦河,42.161667,142.776667,0.36,20.52,-6.93,83.61,0.19,-0.01,s47426
帯広,42.921667,143.211667,-0.47,20.13,2.08,83.69,0.3,0.12,s47417
広尾,42.293333,143.316667,-0.24,18.73,1.02,88.66,0.63,0.38,s47440
根室,43.33,145.585,-0.78,16.8,1.22,90.48,0.22,0.05,s47420
江差,41.866667,140.123333,0.1,22.87,-0.53,78.66,0.2,-0.01,s47428
苫小牧,42.623333,141.546667,0.31,20.94,-2.98,83.39,0.26,0.0,s47424
室蘭,42.311667,140.975,0.07,20.95,0.14,89.48,0.44,0.2,s47423
釧路,42.985,144.376667,-0.04,18.54,-0.47,87.45,0.17,-0.02,s47418
函館,41.816667,140.753333,-0.16,22.2,1.15,81.25,0.3,0.12,s47430
むつ,41.283333,141.21,-0.24,21.77,2.7,87.68,0.47,0.24,s47576
青森,40.821667,140.768333,-0.19,23.47,2.71,80.76,0.21,0.01,s47575
深浦,40.645,139.931667,-0.01,23.38,3.52,86.75,0.19,-0.05,s47574
八戸,40.526667,141.521667,-0.24,22.52,3.57,86.5,0.36,0.18,s47581
秋田,39.716667,140.098333,0.21,25.51,1.76,77.92,0.23,-0.01,s47582
盛岡,39.698333,141.165,-0.03,23.77,5.61,84.69,0.23,-0.02,s47584
宮古,39.646667,141.965,0.1,22.34,3.85,90.98,0.58,0.36,s47585
大船渡,39.063333,141.713333,0.28,23.63,3.47,85.24,0.29,0.06,s47512
輪島,37.39,136.895,-0.28,25.84,4.12,82.22,0.26,0.02,s47600
金沢,36.588333,136.633333,-0.54,27.09,3.56,74.2,0.4,0.16,s47605
酒田,38.908333,139.843333,0.21,25.95,-2.79,73.03,0.21,-0.09,s47587
新庄,38.756667,140.311667,0.2,24.61,1.13,81.62,0.23,-0.04,s47520
山形,38.255,140.345,0.14,25.4,1.81,76.7,0.14,-0.06,s47588
石巻,38.426667,141.298333,0.24,24.0,4.14,86.3,0.15,0.01,s47592
仙台,38.261667,140.896667,0.22,24.88,2.03,82.88,0.25,0.05,s47590
伏木,36.791667,137.055,-0.5,26.53,6.5,83.14,0.51,0.26,s47606
富山,36.708333,137.201667,-0.3,26.92,2.38,78.92,0.45,0.18,s47607
相川,38.028333,138.24,0.03,26.15,2.78,80.41,0.17,-0.01,s47602
新潟,37.893333,139.018333,-0.15,26.66,4.79,78.91,0.22,0.02,s47604
高田,37.106667,138.246667,-0.34,26.29,5.58,83.43,0.39,0.14,s47612
福島,37.758333,140.47,-0.16,25.57,3.55,79.14,0.32,0.13,s47595
若松,37.488333,139.91,0.22,25.62,3.01,79.38,0.24,0.07,s47570
白河,37.131667,140.215,0.17,24.09,3.26,85.68,0.3,0.06,s47597
小名浜,36.946667,140.903333,0.85,25.41,2.45,86.49,0.42,0.27,s47598
萩,34.41,131.405,-0.74,26.64,7.33,84.36,0.78,0.55,s47754
山口,34.161667,131.461667,-1.07,26.67,10.67,83.45,0.84,0.58,s47784
下関,33.948333,130.925,-1.17,26.97,8.87,83.63,0.96,0.72,s47762
西郷,36.203333,133.333333,-0.74,25.58,8.22,88.21,0.9,0.7,s47740
松江,35.456667,133.065,-0.89,26.48,6.21,82.12,0.7,0.54,s47741
浜田,34.896667,132.07,-0.82,26.24,4.5,83.14,0.76,0.57,s47755
境,35.543333,133.235,-0.8,26.7,5.48,80.94,0.62,0.45,s47742
鳥取,35.486667,134.238333,-0.68,26.82,6.08,79.03,0.52,0.34,s47746
米子,35.433333,133.338333,-0.64,26.9,4.1,78.17,0.52,0.35,s47744
豊岡,35.535,134.821667,-0.82,26.44,7.01,82.99,0.52,0.32,s47747
姫路,34.838333,134.67,-0.96,26.98,7.82,80.91,0.34,0.2,s47769
神戸,34.696667,135.211667,-1.02,27.78,7.13,77.06,0.5,0.35,s47770
洲本,34.31,134.848333,-0.0,27.0,2.62,81.44,0.52,0.34,s47776
舞鶴,35.45,135.316667,-0.94,26.4,7.44,82.94,0.53,0.33,s47750
京都,35.013333,135.731667,-0.96,27.74,9.25,73.78,0.63,0.42,s47759
福井,36.055,136.221667,-0.73,26.9,6.28,78.82,0.46,0.26,s47616
敦賀,35.653333,136.061667,-0.68,27.26,4.94,76.48,0.34,0.14,s47631
高山,36.155,137.253333,-0.84,23.77,5.82,82.39,0.72,0.45,s47617
岐阜,35.4,136.761667,-0.67,27.84,3.96,71.83,0.58,0.35,s47632
長野,36.661667,138.191667,0.15,25.68,3.09,75.68,0.26,0.1,s47610
軽井沢,36.341667,138.546667,-0.07,20.88,3.34,91.04,0.45,0.25,s47622
松本,36.246667,137.97,-0.21,24.98,2.88,72.66,0.4,0.25,s47618
諏訪,36.045,138.108333,-0.43,23.75,3.6,79.13,0.5,0.31,s47620
飯田,35.523333,137.821667,-0.82,24.65,6.49,79.91,0.71,0.51,s47637
前橋,36.405,139.06,0.19,27.23,6.26,77.07,0.31,0.06,s47624
宇都宮,36.548333,139.868333,0.05,26.26,5.41,82.42,0.48,0.21,s47615
水戸,36.38,140.466667,0.62,26.45,-0.95,78.45,0.42,0.26,s47629
福山,34.446667,133.246667,-1.07,27.05,8.57,80.79,0.55,0.43,s47767
広島,34.398333,132.461667,-1.17,27.4,3.63,71.69,0.94,0.77,s47765
呉,34.24,132.55,-1.0,27.03,6.78,78.66,0.84,0.69,s47766
津山,35.063333,134.008333,-0.87,25.57,8.81,86.55,0.47,0.29,s47756
岡山,34.685,133.925,-1.28,27.4,10.18,79.19,0.36,0.23,s47768
彦根,35.275,136.243333,-0.82,26.93,6.69,79.13,0.4,0.23,s47761
甲府,35.666667,138.553333,-0.17,27.04,7.27,76.65,0.27,0.08,s47638
河口湖,35.5,138.76,0.07,22.74,3.74,84.62,0.49,0.25,s47640
熊谷,36.15,139.38,0.04,27.45,6.14,79.13,0.25,0.04,s47626
秩父,35.99,139.073333,0.09,25.78,3.34,83.93,0.2,-0.03,s47641
厳原,34.196667,129.291667,-0.47,26.55,5.74,86.62,0.94,0.56,s47800
平戸,33.36,129.55,-0.58,26.11,4.21,88.92,1.45,1.06,s47805
佐世保,33.158333,129.726667,-0.86,27.43,9.51,83.53,1.33,1.0,s47812
長崎,32.733333,129.866667,-0.98,27.29,11.71,86.99,1.26,0.98,s47817
雲仙岳,32.736667,130.261667,-0.82,22.69,6.8,93.31,2.14,1.7,s47818
福江,32.693333,128.826667,-0.67,26.78,9.53,89.77,1.29,0.97,s47843
佐賀,33.265,130.305,-1.04,27.35,10.28,82.05,1.88,1.55,s47813
飯塚,33.651667,130.693333,-1.05,26.44,8.82,86.39,1.32,1.05,s47809
福岡,33.581667,130.375,-1.11,27.53,8.66,79.87,1.19,0.91,s47807
大阪,34.681667,135.518333,-1.07,28.09,7.95,73.59,0.42,0.26,s47772
奈良,34.673333,135.836667,-0.45,27.03,4.08,76.85,0.41,0.23,s47780
四日市,34.94,136.58,-0.45,26.51,5.5,85.08,0.3,0.06,s47684
上野,34.761667,136.141667,-0.66,26.32,6.97,80.7,0.36,0.16,s47649
津,34.733333,136.518333,-0.55,27.55,-0.22,71.93,0.3,0.09,s47651
尾鷲,34.068333,136.193333,-0.06,26.82,2.89,82.83,0.82,0.2,s47663
名古屋,35.166667,136.965,-0.58,27.82,7.87,76.2,0.47,0.26,s47636
伊良湖,34.628333,137.093333,-0.25,27.43,6.7,84.96,0.6,0.43,s47653
三島,35.113333,138.925,0.07,27.54,6.57,80.09,0.3,0.08,s47657
網代,35.045,139.091667,-0.1,26.51,6.0,84.17,0.44,0.19,s47668
静岡,34.975,138.403333,0.05,27.62,5.03,80.77,0.33,0.06,s47656
浜松,34.753333,137.711667,-0.15,27.5,2.58,80.39,0.56,0.37,s47654
御前崎,34.603333,138.213333,0.04,27.0,3.49,87.5,0.45,0.23,s47655
石廊崎,34.603333,138.841667,0.15,26.51,3.19,88.17,0.45,0.27,s47666
横浜,35.438333,139.651667,0.24,27.47,4.28,79.41,0.37,0.18,s47670
東京,35.691667,139.75,-0.32,27.43,8.16,80.22,0.51,0.31,s47662
大島,34.748333,139.361667,0.49,26.71,2.54,88.27,0.5,0.23,s47675
三宅島,34.123333,139.52,0.49,27.2,1.44,87.33,0.56,0.24,s47677
八丈島,33.121667,139.778333,-0.1,26.42,5.07,92.39,0.37,0.13,s47678
父島,27.091667,142.19,-0.12,27.87,1.92,84.71,0.05,-0.1,s47971
南鳥島,24.288333,153.983333,0.39,28.74,1.55,81.57,0.11,-0.13,s47991
銚子,35.738333,140.856667,0.73,26.44,0.99,88.28,0.49,0.35,s47648
千葉,35.601667,140.103333,0.4,27.72,-1.88,74.26,0.35,0.19,s47682
勝浦,35.15,140.311667,0.16,26.2,3.03,88.54,0.52,0.35,s47674
館山,34.986667,139.865,0.4,27.27,1.38,82.7,0.29,0.13,s47672
熊本,32.813333,130.706667,-1.59,27.04,12.46,83.83,1.35,1.08,s47819
人吉,32.216667,130.755,-0.82,25.97,7.69,86.34,1.19,0.9,s47824
牛深,32.196667,130.026667,-0.8,27.64,7.27,83.4,1.09,0.85,s47838
日田,33.321667,130.928333,-0.96,26.58,10.23,83.83,1.09,0.82,s47814
大分,33.235,131.618333,-0.87,27.11,8.12,81.06,0.69,0.48,s47815
松山,33.843333,132.776667,-0.79,27.51,10.93,80.07,0.5,0.36,s47887
宇和島,33.226667,132.551667,-0.73,27.02,6.73,82.55,0.54,0.3,s47892
高松,34.318333,134.053333,-1.0,27.84,8.94,77.86,0.29,0.13,s47891
多度津,34.275,133.751667,-0.92,27.53,8.97,79.48,0.29,0.16,s47890
和歌山,34.228333,135.163333,-0.91,27.6,8.81,78.09,0.64,0.48,s47777
潮岬,33.45,135.756667,-0.66,26.34,7.04,90.6,0.48,0.1,s47778
阿久根,32.026667,130.2,-0.84,26.76,4.48,84.23,1.36,1.07,s47823
鹿児島,31.555,130.546667,-1.14,27.89,8.76,81.96,1.08,0.82,s47827
枕崎,31.271667,130.291667,-0.68,27.29,8.47,86.31,1.24,1.01,s47831
種子島,30.72,130.981667,-0.46,27.73,5.82,86.36,0.37,0.13,s47837
名瀬,28.378333,129.495,-0.43,28.23,3.19,81.06,0.19,-0.2,s47909
屋久島,30.385,130.658333,-0.73,26.91,3.31,84.78,0.58,0.26,s47836
沖永良部,27.431667,128.705,-0.58,28.22,5.51,86.76,0.14,-0.12,s47942
延岡,32.581667,131.656667,-1.06,26.11,8.3,89.65,0.8,0.46,s47822
宮崎,31.938333,131.413333,-0.85,27.01,6.1,84.92,0.63,0.27,s47830
都城,31.73,131.081667,-0.92,26.28,7.94,85.88,0.97,0.58,s47829
油津,31.578333,131.406667,-0.94,26.98,7.96,87.35,0.68,0.38,s47835
高知,33.566667,133.548333,-0.92,27.15,6.88,83.33,1.13,0.75,s47893
室戸岬,33.251667,134.176667,-0.77,25.6,5.47,92.72,1.0,0.7,s47899
宿毛,32.92,132.695,-0.66,26.88,7.27,85.23,0.88,0.54,s47897
清水,32.721667,133.01,-0.87,26.95,6.76,88.62,0.66,0.32,s47898
徳島,34.066667,134.573333,-0.91,27.37,8.73,81.01,0.48,0.2,s47895
名護,26.593333,127.965,-0.4,28.49,7.02,85.94,0.22,-0.16,s47940
那覇,26.206667,127.686667,-0.39,28.66,6.31,83.5,0.15,-0.19,s47936
石垣島,24.336667,124.163333,-0.21,29.2,5.22,83.39,0.26,-0.09,s47918
宮古島,24.793333,125.278333,-0.53,28.17,5.76,86.53,0.52,0.16,s47927
久米島,26.336667,126.803333,-0.68,28.35,5.38,85.95,0.34,0.09,s47929
西表島,24.426667,123.765,0.15,28.71,4.59,87.29,0.23,-0.16,s47917
与那国島,24.466667,123.01,-0.16,28.56,8.12,90.01,0.17,-0.14,s47912
